State,District,Migratory_Path,Longitude,Latitude,Annual_Mean_Temperature,Mean_Diurnal_Range,Isothermality,Temperature_Seasonality,Max_Temperature_of_Warmest_Month,Min_Temperature_of_Coldest_Month,Temperature_Annual_Range,Mean_Temperature_of_Wettest_Quarter,Mean_Temperature_of_Driest_Quarter,Mean_Temperature_of_Warmest_Quarter,Mean_Temperature_of_Coldest_Quarter,Precipitation_Seasonality,EVI,LST,NDVI,Potential_Evaporation ,Air_Temperature,Wind_Speed,Surface_Pressure,Specific_Humidity,Soil_Moisture,chicken_den_2015,chicken_den_2010,duck_den_2010,duck_den_2015,Precipitation_of_Coldest_Quarter,Precipitation_of_Driest_Month,Precipitation_of_Warmest_Quarter,Precipitation_of_Wettest_Month,Precipitation_of_Driest_Quarter,Precipitation_of_Wettest_Quarter,Annual_Precipitation,LAI,Potential_Evapotranspiration,Water_canal,Water_drain,Water_river,Water_stream,dist_wetland_km,wetland_1km,Status
TAMIL NADU,COIMBATORE,0,76.97558886,10.87424454,26.6875,10.39500046,63.9141655,155.9478149,35.80400085,19.54000092,16.26399994,25.95400047,27.27066612,29.04400063,25.25399971,69.52417755,0.28485,32.3025,0.472825,253.5548973,25.09602509,3.425054074,95776.53321,0.01543086,27.65308238,13.37918241,13.09700251,4.279357114,8.518534107,5.187385806,2.079441542,5.141663557,5.187385806,3.526360525,5.924255797,6.875232087,0.074643543,3.665696119,1,0,0,0,0.834190299,1,0
ANDHRA PRADESH,VISAKHAPATNAM,1,82.72133173,18.15222262,22.4438324,9.479000092,47.09360123,291.1759644,32.80400085,11.8039999,20.12400055,22.83466721,18.98399925,26.32466698,18.4873333,93.65933228,0.399875,27.505,0.647575,205.4993744,23.790094,2.020841838,92626.3711,0.015015907,21.63571692,10.87980697,10.77328883,4.453246007,4.803713667,3.912023005,1.945910149,5.697093487,5.620400866,3.17805383,6.622736324,7.181591945,0.163393547,3.897078558,0,0,0,1,1.43297261,0,0
WEST BENGAL,MURSHIDABAD,1,88.16821158,24.16506169,25.97205565,10.95166673,42.46721183,450.7775133,36.98044417,11.19066673,25.78977733,29.33570311,19.91251861,30.15755548,19.40511131,107.101621,0.362294444,29.83604938,0.564416667,235.8316252,29.17831065,2.840901673,100236.025,0.014578001,25.61349265,11.17516618,11.03881146,9.66856175,8.39065212,3.445908238,0.693147181,5.885706533,5.864267764,3.439172169,6.76969896,7.236327381,0.349537618,4.82016163,0,0,1,0,1.361599421,0,1
JHARKHAND,BOKARO,0,85.9728217,23.73295594,25.73511123,11.13866647,39.80719376,496.0258993,39.45733261,11.4746666,27.98266538,27.84688822,19.37511063,31.61266645,19.17911085,121.9359207,0.318775,30.43321429,0.487458333,250.5977478,27.61146698,2.402119021,97087.028,0.011992713,20.96956698,10.15895595,10.0624475,7.405963747,6.444712502,3.269725624,1.098612289,5.275358059,5.765050652,2.978634509,6.748706117,7.073820599,0.079551913,3.885186913,0,0,1,0,1.144294398,1,1
TAMIL NADU,TIRUVANNAMALAI,0,79.10190653,12.4385304,27.35741711,9.999000551,54.47642899,263.5284424,36.7119999,18.50800037,18.4099989,26.52066708,25.51399994,30.44966698,23.9206667,76.82326889,0.39175,32.56083334,0.5873,293.4896126,28.78044663,2.735771001,98086.79103,0.015229769,27.54683758,9.273499974,8.831270028,3.112878001,5.217592297,5.473997791,2.350240183,5.059178484,5.354222204,3.688879454,6.23820254,6.928664908,0.081310035,3.835750937,0,0,0,1,2.380081176,0,0
ASSAM,KOKRAJHAR,0,90.1304184,26.51431327,24.84983253,9.909000397,48.4500351,372.8346558,32.2519989,11.80000019,20.45199966,28.32866669,20.24266624,28.36733246,19.44266701,106.2620468,0.3351,29.53652288,0.5227,154.9841843,27.65740357,2.193773389,99971.02539,0.014330332,28.91724062,9.865042443,9.709559014,7.908659305,8.145137818,3.36729583,1.609437912,7.346655163,6.620073207,3.295836866,7.585788822,8.059908335,0.09417317,3.92370451,1,0,0,0,0.059615844,1,0
NCT OF DELHI,CENTRAL,0,77.21967505,28.6431175,13.78273155,10.68781487,42.20740658,553.414049,24.6117781,-0.900444245,25.72222233,19.01418538,7.53640755,19.75162986,6.462111155,111.5274027,0.236029861,20.50874601,0.384686806,192.703649,14.57229937,2.460897595,77255.095,0.007401705,25.40449625,7.426074778,6.561672303,2.455343148,3.177050582,3.638161446,1.776935348,6.240272369,5.547763766,3.397797425,6.446492156,6.852168214,0.58201019,5.404534799,0,0,0,1,1.136298427,0,0
MADHYA PRADESH,CHHATARPUR,0,79.9176711,25.05447399,26.00133324,13.73366642,40.04415703,632.0029602,43.00599862,8.710000038,34.29599953,28.6916666,30.472332,33.45266724,17.67566586,147.6825485,0.266225,31.55375,0.45055,265.1827508,28.39988481,2.701791972,98237.93263,0.009260776,16.4385202,6.384050942,6.234385527,0.150484456,1.208584406,3.74888085,0.895879735,4.390547368,5.853427197,2.628747686,6.726132034,6.909096977,0.044520283,3.957349557,0,0,1,0,2.564571666,1,0
MEGHALAYA,EAST KHASI HILLS,0,91.80065106,25.38040384,22.84125018,9.292833448,45.67763901,380.2416039,30.52899957,10.17000008,20.35899949,26.29250002,17.27883303,26.30850005,17.27883303,97.73520374,0.3203875,27.04864584,0.49564375,150.3039246,25.56201039,1.670863025,96058.57228,0.014693465,29.88175345,9.545187696,9.333012983,4.861150269,6.170145031,3.485811232,1.501439569,7.353981914,6.455303421,3.485811232,7.418575619,7.950191783,0.430495542,4.998753754,0,0,1,1,1.668597072,0,0
HARYANA,KAITHAL,0,76.41828982,29.81386175,23.9640007,13.30533314,39.65585327,718.8140259,39.7120018,6.159999847,33.55200195,29.43266678,26.64733315,31.75666809,14.22800064,120.9759979,0.3477,29.0275,0.46235,281.6905441,29.56316529,2.973126293,97930.03516,0.007188296,13.10023213,10.35723859,10.05511462,0.550526999,6.743974302,3.761200116,1.609437912,5.204006687,5.023880521,3.36729583,5.955837369,6.251903883,0.06414782,3.923786872,0,0,1,0,1.34590029,0,0
ARUNANCHAL PRADESH,LOHIT,0,96.19516273,27.83998702,22.23099899,9.514666557,41.66520691,469.1629944,31.08799934,8.251999855,22.83599854,27.05800056,17.00466537,27.10133362,15.7786665,89.69358826,0.41035,25.395,0.784325,131.993166,22.02724609,1.820180893,90772.35742,0.011885322,34.17307282,7.480177216,7.574219955,4.944480848,5.253019571,4.718498871,2.944438979,7.297091005,6.388561406,4.33073334,7.394493107,7.940583827,0.307791026,3.862307413,0,0,1,0,0.226107369,1,0
ASSAM,JORHAT,0,94.42389376,27.04218017,23.67416668,9.872666359,45.15885735,426.2504731,31.64000035,9.777999878,21.86200142,27.97866726,18.71366597,27.9800005,17.66699982,80.57631302,0.21734375,26.64208334,0.36751875,147.5430699,27.06543122,1.92460084,99478.41895,0.014602958,26.83880568,9.876617258,9.743394336,8.918424632,8.805082608,4.627178629,2.990707106,7.125300243,6.192669771,4.435892985,7.201041576,7.891642467,0.051062487,3.97470924,0,0,1,0,0.567746763,1,0
UTTAR PRADESH,MAINPURI,1,79.17930207,27.12505348,25.61833382,13.74199963,39.60687256,681.5968018,42.29599762,7.599999905,34.69599915,29.54533386,24.03733444,33.11000061,16.39866638,136.765976,0.28985,29.39985622,0.4281,272.2735748,30.15883026,2.988271654,98749.31641,0.008601693,16.68553925,7.311025348,7.208429707,1.434844283,4.04902316,3.583518938,1.098612289,5.655991811,5.655991811,3.091042453,6.464588304,6.71417053,0.074643543,3.965800711,0,0,1,0,0.056696414,1,0
UTTAR PRADESH,MEERUT,0,77.87010207,28.92416725,24.35583305,13.13433314,39.97925568,675.4290466,39.82799912,6.926000118,32.86800003,29.12233257,27.36000061,31.65666676,15.20833302,134.0396576,0.36055,29.12333334,0.558075,256.7116547,29.14012299,3.118245602,98051.4336,0.008135191,14.64057064,7.285838485,7.066193245,2.812027649,4.312277804,3.988297705,1.700598691,5.778930294,5.659476145,3.496507561,6.605908219,6.838322482,0.09417317,3.963903627,1,0,0,0,1.850870013,1,0
GUJARAT,PANCH MAHALS,0,73.75894408,22.9235323,26.92808342,13.46316624,45.82704735,434.156601,41.13199997,11.75400019,29.37799931,27.80166722,27.15233421,32.44533348,21.22433281,152.6964798,0.3215375,30.55527288,0.5065,270.1424637,27.77651749,3.118675888,98777.92677,0.010817727,20.79731322,9.38105958,9.226143204,2.260180074,5.601617401,1.868834809,0.693147181,4.672654116,5.784841899,1.386294361,6.654771557,6.816730482,0.063511772,3.8757261,0,0,1,0,2.147552499,1,0
JHARKHAND,LATEHAR,0,84.39977772,23.79438503,24.52441693,11.15049982,38.11352348,536.5516357,39.13599968,9.883999825,29.25199986,26.87400055,17.68966675,30.80333329,17.37699986,124.577343,0.3154375,29.82375,0.5638625,229.4919511,26.01419984,2.0711056,95526.05274,0.010799871,18.57653237,8.530820436,8.711782959,3.240376345,4.94075437,3.921532008,1.791759469,5.25390176,5.818508723,3.540854293,6.814494095,7.123119586,0.090473096,3.905021747,0,0,1,0,4.361031827,0,0
GUJARAT,SABAR KANTHA,0,73.12651391,23.76185153,26.49416638,13.54600001,44.69618797,472.4005585,41.12999916,10.82200003,30.30799866,27.91399956,26.2436676,32.25366593,20.10566712,158.3758011,0.327275,31.7125,0.5286125,275.3681794,27.35363541,2.929581285,97706.82423,0.009827989,11.43952227,8.495022415,8.409026753,2.656098908,5.170195327,1.868834809,0.693147181,4.283372485,5.710421535,1.609437912,6.491481685,6.629362381,0.070525935,3.898479024,0,0,1,0,1.896138163,1,0
RAJASTHAN,SIROHI,0,72.82513771,24.61575256,23.7230835,10.98883343,41.19177437,446.9734192,36.62400055,9.958000185,26.66600037,25.01966667,23.44433403,29.15533352,17.65600014,165.9197541,0.306375,31.475,0.519025,248.0629654,26.33643494,2.456315876,95365.40626,0.009203014,16.84407044,6.876066942,6.615174862,0.345522509,1.274326799,2.071567363,0.895879735,4.299570887,5.910355795,1.777674031,6.771350667,6.87908424,0.066489741,3.92904399,0,1,0,0,0.431886203,1,0
NAGALAND,MON,0,95.02165506,26.73118001,15.90904329,10.92212209,41.28451909,525.4708201,27.82983376,1.378092681,26.6617413,19.75422551,9.841151308,21.9218615,9.147867388,111.8863542,0.200936863,21.99971443,0.343732697,196.2254004,17.13916773,2.465564135,82141.2693,0.009354865,24.48343037,7.891340861,7.352535994,3.311274555,3.45557509,3.476617789,1.714121569,5.741648434,5.426129063,3.315792586,6.337761293,6.746399551,0.44284813,5.063434792,0,0,0.5,0.5,2.386058644,1,0
HARYANA,REWARI,0,76.54343142,28.235696,25.0454998,14.38099957,40.92021179,725.1998291,41.38800049,6.243999958,35.14400101,30.07999992,28.26000023,32.77199936,15.00466633,138.8904266,0.300725,34.0225,0.445775,300.1672669,30.33137665,2.985244215,97319.30469,0.007157379,14.47743654,10.44166116,10.4394793,0.615891144,6.417979759,3.295836866,1.386294361,5.252273428,5.159055299,2.995732274,6.040254711,6.249975242,0.0547249,3.999194092,1,0,0,0,4.922044697,0,0
MIZORAM,MAMIT,1,92.46718417,23.75401303,21.59250069,8.80700016,46.31362915,311.8254395,29.54800034,10.53199959,19.01600075,23.71133423,16.90733337,24.2033329,16.90733337,98.28201294,0.44645,22.97,0.67805,184.2483063,21.22501526,1.201330096,89328.9375,0.013624132,33.13123894,8.640347885,8.347610641,1.957127506,3.463095121,3.80666249,2.197224577,6.833031733,6.413458957,3.80666249,7.474772182,7.986504939,0.381001636,3.774292332,0,0,0,1,2.102551096,0,0
UTTAR PRADESH,PILIBHIT,0,79.98271472,28.71383216,24.44549942,12.05166626,39.89561081,611.0583496,38.75600052,8.548000336,30.20800018,28.56933212,16.75866699,30.65000153,15.97933388,126.3388596,0.34955,29.2125,0.59165,229.5870819,28.46597443,3.134882331,98379.50391,0.008901157,17.96823979,7.563970586,7.223468406,5.317502911,4.015394029,4.189654742,1.791759469,6.447305863,6.03787092,3.912023005,6.935370446,7.25629724,0.11370064,4.0211016,1,0,0,0,4.896950992,0,0
PUNJAB,SANGRUR,0,75.86867987,30.2129905,23.75550079,13.39633369,39.66228485,733.8721924,39.50799942,5.731999874,33.77600098,29.48999977,19.28600121,31.69066811,13.80466652,126.5500183,0.371775,28.20416667,0.510025,273.7877236,29.18109284,2.984013319,97920.43555,0.006987621,12.97163248,9.345895789,9.131601033,5.575229866,4.604582652,3.828641396,1.386294361,5.351858133,5.147494477,3.433987204,6.068425588,6.326149473,0.075802963,3.900709246,1,0,0,0,5.084636942,0,0
MAHARASHTRA,BID,0,76.38601782,18.85897226,26.30649996,12.91466665,48.00753689,369.3504715,40.59200001,13.75,26.90100003,25.7213335,25.11583281,31.29766608,22.01866675,116.5076103,0.21393125,32.5025,0.3795,306.3869782,26.20748291,3.127172053,94715.98047,0.011582366,23.65555597,9.16631139,8.949648494,0.029424914,4.418107568,3.36352611,1.170532807,5.079340351,5.296482109,2.397895273,6.333108859,6.710020119,0.042010317,3.908071319,0,0,1,1,1.377915659,0,1
KERALA,WAYANAD,1,76.09816587,11.71123918,22.9810009,8.729332924,60.11937332,143.7784119,30.68400002,16.16399956,14.52000046,22.01733398,23.37466621,25.19400024,21.84600067,125.9726944,0.445125,26.42833333,0.736575,172.080597,21.9778534,1.08498919,92160.35743,0.015195728,27.75119353,9.749671817,9.633632316,5.546937942,7.014366348,4.691347882,1.386294361,5.598421959,6.925595197,3.36729583,7.63385356,7.974876901,0.193714741,3.883023214,0,0,0,1,0.094046306,1,0
JHARKHAND,KHUNTI,0,85.28370556,23.1620279,24.09749985,11.19299984,41.38198471,459.259613,37.26399994,10.2159996,27.04800034,25.79533386,18.0933342,29.54333305,18.00799942,115.5688934,0.2502,28.01333334,0.42925,242.4782639,25.22591553,2.78710711,94057.55079,0.011795513,20.2618351,9.950836947,9.831623459,6.036605765,6.11193325,3.931825633,1.791759469,5.590986981,5.84932478,3.555348061,6.829793738,7.217443432,0.056695344,3.787026515,0,0,0,1,1.51689479,0,0
GUJARAT,THE DANGS,0,73.70127935,20.80430617,25.47316742,12.87300014,49.88761139,320.0336304,37.85200119,12.04800034,25.80400085,25.55266571,23.33466721,29.69466782,21.5,151.8839722,0.23895,30.02,0.4806,236.8316346,25.42707215,1.958046615,97141.80274,0.012696048,23.55978394,9.324916813,8.992843677,2.85193345,5.224408452,1.945910149,0,5.411646052,6.436150368,1.609437912,7.267525428,7.458186157,0.090754363,3.788441944,0,0,0,1,1.408857763,0,0
PUNJAB,MUKTSAR,0,74.54102705,30.29433703,24.26016617,13.96899986,39.75694275,761.9194946,40.66400146,5.527999878,35.13600159,30.58133316,19.65999985,32.47999954,14.00733376,122.9218292,0.3064,29.8675,0.461125,281.2974167,29.78438721,2.785012365,98368.0625,0.006350147,12.50795841,9.440278582,9.420797616,5.03315296,3.128468188,3.258096538,1.386294361,4.905274778,4.672828834,2.995732274,5.686975356,5.953243334,0.072320662,3.924939231,0,1,0,0,2.42188153,0,0
ANDHRA PRADESH,PRAKASAM,0,79.1901248,15.53219283,28.51891613,10.2511673,48.87841416,314.3910828,39.59799958,18.38799954,20.96999931,27.9713335,26.8963337,32.54000092,24.41800023,81.94426346,0.2132625,37.32666667,0.3623,317.3393632,28.65140686,3.211137117,97730.36329,0.014946556,23.04731703,9.02549033,8.73135779,5.231835872,3.017168511,4.603567621,1.242453325,4.912627852,5.038678411,2.799210979,5.870707351,6.586010868,0.055277096,3.832025489,0,0,1,0,2.695181614,0,0
UTTAR PRADESH,FIROZABAD,0,78.50827628,27.3822897,25.40216637,13.81833363,39.61223984,696.9844971,41.99599838,7.111999989,34.88399887,29.61733246,29.0233326,33.03933334,15.88533401,135.0824585,0.31755,30.16652288,0.460325,270.6564904,30.38598023,3.00626421,98573.2461,0.008177237,17.32295609,6.659196537,6.439153838,1.849715906,3.500437931,3.526360525,1.386294361,5.634789603,5.517452896,3.295836866,6.416732283,6.651571874,0.060624622,3.979370079,0,0,1,0,0.152475953,1,0
MADHYA PRADESH,ALIRAJPUR,0,74.19371142,22.01370408,25.85833359,13.56266594,49.53494263,358.1186829,39.2519989,11.87199974,27.37999916,25.86400032,26.66799927,30.68600082,21.47933388,145.5215454,0.2091,31.44,0.37705,263.7984009,26.95636902,2.827059508,97634.41797,0.011284374,17.16163731,9.589461007,9.393456374,0.391592842,3.481840696,1.098612289,0,4.859812404,5.783825182,0.693147181,6.634633358,6.839476438,0.051168287,3.908265957,0,0,1,0,0.006122202,1,0
UTTAR PRADESH,BULANDSHAHR,0,78.01230464,28.35757418,24.33616638,12.8516674,39.91201019,652.6738281,39.69599915,7.495999813,32.20000076,28.84466743,27.50933266,31.31866646,15.46266651,129.6808167,0.3399,29.53902288,0.55185,239.4315339,28.52318726,3.255057574,98025.27735,0.008550702,14.90666914,7.839605059,7.703161043,1.827818952,4.333270401,4.219507705,1.609437912,6.01615716,5.811140993,3.663561646,6.694562059,6.962243464,0.09531018,3.943279395,1,0,0,0,0.165928743,1,0
CHHATTISGARH,SURGUJA,0,83.21940102,23.35776481,25.69506058,11.5488402,41.94839339,439.6502467,39.95065927,12.14080445,27.82005494,26.50313248,20.88352931,31.46108271,20.20229517,131.9678287,0.276434106,29.70543498,0.477928333,232.3218145,26.09196803,2.339430537,95955.28505,0.011816925,20.2244118,8.715465279,8.491388651,3.198609987,4.442227889,3.02392818,1.300640163,5.353329022,6.006868053,2.773755552,6.921258557,7.215059085,0.106290071,3.974805709,0,0,1,0,2.23896228,0.353333333,0
HARYANA,JHAJJAR,1,76.64926878,28.6047313,24.77899933,13.88533306,40.18676758,722.0194092,40.85200119,6.300000191,34.55200195,29.95666695,16.15799904,32.53666687,14.8760004,133.7185974,0.37545,29.6825,0.555175,304.6117936,30.73982392,3.029636026,98090.4043,0.007235453,13.8131404,8.935623249,8.624905905,0.181613436,5.028839481,3.555348061,1.609437912,5.379897354,5.204006687,3.218875825,6.104793232,6.345636361,0.100975917,3.883537793,1,0,0,0,0.827084998,1,0
TAMIL NADU,KARUR,0,78.05308633,11.06482444,28.47050095,10.22366714,61.58835602,201.7533875,36.97200012,20.37199974,16.60000038,27.61133194,27.57466698,30.91400146,25.79666519,81.72263336,0.4273,32.2825,0.6419,317.1799393,28.73623811,3.169919372,98959.66212,0.015465035,26.57379532,10.69689005,10.08116994,2.298535616,7.507353021,5.030437921,2.397895273,4.94875989,5.192956851,3.465735903,5.891644212,6.549650742,0.102105223,3.796331531,1,0,0,0,0.077774054,1,0
UTTAR PRADESH,MAHAMAYA NAGAR,0,78.16157563,27.57758815,24.33616638,12.8516674,39.91201019,652.6738281,39.69599915,7.495999813,32.20000076,28.84466743,27.50933266,31.31866646,15.46266651,129.6808167,0.3399,29.53902288,0.55185,239.4315339,28.52318726,3.255057574,98025.27735,0.008550702,14.90666914,7.839605059,7.703161043,1.827818952,4.333270401,4.219507705,1.609437912,6.01615716,5.811140993,3.663561646,6.694562059,6.962243464,0.09531018,3.943279395,1,0,0,0,0.165928743,1,0
BIHAR,LAKHISARAI,0,86.13115033,25.15545145,25.94566727,11.61400032,40.03723145,539.6152954,39.17200089,10.16400051,29.00799942,29.02400017,25.45533371,31.64999962,18.39266586,118.474411,0.278875,30.78583334,0.484575,272.0264321,29.86623536,2.808701814,99686.91016,0.012378609,20.64201355,9.02549033,9.45624545,4.874097318,4.742580791,3.401197382,1.098612289,5.236441963,5.556828062,3.258096538,6.56526497,6.921658184,0.060624622,3.928142387,0,0,1,0,2.367325697,0,0
PUNJAB,JALANDHAR,0,75.57722204,31.32432111,23.77583313,12.91566658,38.07235718,726.3870239,39.90800095,5.984000206,33.92399979,29.59000015,19.16200066,31.61666679,14.03133392,122.7421646,0.260275,30.64,0.418325,247.3173409,28.4249588,2.708262444,97888.88282,0.007430231,19.13977432,7.413953393,9.859569682,5.173832985,3.402369049,4.127134385,1.945910149,5.609471795,5.398162702,3.828641396,6.244166901,6.548219103,0.055907632,4.053739558,1,0,0,0,2.913199145,0,0
KERALA,THIRUVANANTHAPURAM,1,77.07991557,8.397480086,27.36599922,7.447999954,67.22021484,90.41067505,32.95199966,21.87199974,11.07999992,27.65600014,27.33666611,28.76733398,26.50066757,63.27236176,0.486875,29.6725,0.719975,183.4260712,23.52542267,1.87511015,94572.64258,0.015777266,24.42174626,11.08742672,11.00458785,6.823602059,8.450363848,5.713732806,2.995732274,5.749392986,5.59471138,4.418840608,6.403574198,7.364547014,0.383560273,3.681036277,0,0,0,1,0.265817291,1,0
JHARKHAND,GARHWA,0,83.45134053,24.13170467,25.33166695,11.90533352,38.43901825,571.6854858,40.72800064,9.755999565,30.97200012,27.88800049,29.61266708,32.00266647,17.74066544,132.9370422,0.3311,30.6225,0.5409,249.5553589,27.28284607,2.558790803,97079.97657,0.010529405,15.4095068,8.685700587,8.654816113,1.87850089,5.641668096,3.828641396,1.791759469,4.96284463,5.828945618,3.433987204,6.748759547,7.006695227,0.085030249,3.923951576,0,0,1,0,0.371051176,1,0
MANIPUR,CHANDEL,0,94.03539699,24.38062169,20.27616692,10.23700047,46.77846527,387.8203125,29.04400063,6.880000114,21.88400078,23.63800049,15.15600014,23.64533234,14.63933372,96.01792908,0.42585,24.56,0.67835,148.9778595,22.91906892,1.380490125,91412.88868,0.013698578,35.80313111,8.744248724,8.520899444,6.526412248,6.82932186,4.110873864,2.708050201,7.273092596,6.293419279,4.110873864,7.273092596,7.779885115,0.341815081,3.825102533,0,0,1,0,0.460551046,1,0
NAGALAND,DIMAPUR,0,93.78508393,25.77852487,19.1989584,9.670083046,45.8399725,422.6220551,27.01200009,5.925000072,21.09700012,23.4666667,13.49600029,23.4666667,13.2383337,87.63907433,0.4355375,24.771625,0.7189375,138.9751077,22.18444977,1.277217739,90029.43702,0.01307999,34.49443102,9.506664796,9.375410248,5.623978086,6.338271491,4.115236874,2.348165482,7.062329327,6.033687176,4.100080718,7.062329327,7.646957696,0.289977527,3.781889711,0,0,1,1,3.385813411,0,0
PUNJAB,FARIDKOT,0,74.77937816,30.61077635,24.07116699,13.89033413,39.51506042,756.5780029,40.69599915,5.544000149,35.15200043,30.34733391,19.40666771,32.24599838,13.93799973,123.4289246,0.344525,29.33166667,0.471375,273.873684,29.34789429,2.809423208,98226.07422,0.006497127,12.43560267,8.776716126,8.674396549,5.049619815,2.814142742,3.610917913,1.386294361,5.093750201,4.8978398,3.258096538,5.837730447,6.104793232,0.096445898,3.973353261,0,1,0,0,1.687440248,0,0
NAGALAND,PHEK,1,94.38410018,25.58828695,17.3813324,9.589333534,46.19756317,423.6817322,24.99600029,4.291999817,20.74399948,21.55599976,11.47200012,21.55599976,11.47200012,93.012146,0.332175,24.2425,0.604,153.8562546,20.33179627,1.002158791,86681.50782,0.012475232,34.07953835,9.79273754,9.766838044,6.170761718,6.655347797,3.912023005,2.302585093,6.996681488,5.934894196,3.912023005,6.996681488,7.525639975,0.096824185,3.708988407,0,0,1,0,0.938085477,1,0
JHARKHAND,GUMLA,0,84.41231464,23.31556068,23.29241657,11.25783396,40.14481735,489.7332154,37.30800057,9.262000084,28.04600048,25.24966717,17.00366688,29.12133313,16.84733391,119.2915535,0.482825,27.06166667,0.737,212.3241196,23.65673981,2.155078411,91340.37305,0.010692066,20.60149384,9.412503703,9.298440281,5.417950346,6.02703385,4.085092826,1.791759469,5.556082138,5.913137642,3.649898683,6.859579668,7.226413927,0.155221535,3.821551102,0,0,0,1,2.777761203,1,0
HARYANA,ROHTAK,0,76.40817695,29.01276715,24.39966583,13.52133274,39.7733078,718.4406738,40.27999878,6.28399992,33.99599838,29.74866676,19.86066628,32.22533417,14.65933323,121.1142654,0.2537,29.52,0.3962,291.5479508,30.18652496,3.048453212,98010.60938,0.007133064,14.22876835,10.08949502,9.798901054,2.155083841,6.144875905,3.663561646,1.609437912,5.267858159,4.9698133,3.295836866,5.913503006,6.208590026,0.055907632,3.896909368,1,0,0,0,3.517057858,0,0
JHARKHAND,PURBI SINGHBHUM,0,86.183334,22.8,26.47083282,10.89433384,41.65774536,449.1806335,38.72800064,12.57600021,26.15200043,28.41266632,20.47599983,31.50799942,20.34200096,112.2166595,0.235875,30.13652288,0.4162,250.3228455,27.5167862,1.832317412,98091.90625,0.013324395,31.04565335,7.761121792,9.968415506,6.316010623,6.799251017,3.526360525,1.098612289,5.631211782,5.700443573,3.218875825,6.733401892,7.142036575,0.058268908,3.876913828,0,0,1,0,1.344601926,0,1
ODISHA,SUNDARGARH,0,84.44631354,22.0496131,25.38391686,11.07433319,40.3352089,456.3943176,39.28300095,11.81000018,27.47300101,26.69950009,19.54516649,31.12449932,19.54516649,126.1461697,0.270625,28.97729167,0.50543125,231.1506139,26.64413224,2.147318066,96525.10011,0.012376537,19.04463292,8.816026815,8.664346795,4.56419893,5.136279561,3.27767794,1.487660638,5.626493618,6.034144738,3.27767794,6.96861442,7.296464004,0.074243985,3.862321296,0,0,1,1,3.100300031,0,1
KARNATAKA,UDUPI,0,74.80567664,13.1792439,27.07100105,8.744667053,60.74372482,132.986618,34.39599991,20,14.39599991,26.02266693,27.1420002,29.12666702,25.88800049,132.5101929,0.430525,29.86652288,0.683675,204.6646195,26.3432251,2.88385427,100535.9805,0.017595828,30.78744603,9.02549033,8.895759331,3.236253625,4.742580791,7.817222786,0.693147181,5.468060141,7.167809184,2.197224577,8.017966703,8.285513309,0.1665732,3.774866001,0,0,1,0,2.979852194,0,0
GUJARAT,BHARUCH,0,72.93285371,21.97705039,27.461833,13.83766651,48.27612114,391.799942,40.35199929,11.69000006,28.66199971,28.51733208,24.79299927,32.17966652,22.09833336,151.3284989,0.222375,32.2,0.385275,302.0158692,28.8555008,3.476668865,100438.9278,0.012033659,17.29577757,9.02549033,8.895759331,3.236253625,4.742580791,1.386294361,0.34657359,4.619075036,5.709351347,1.386294361,6.522937672,6.703733564,0.058844293,3.919739159,0,0,1,0,0.879243072,1,0
MIZORAM,CHAMPHAI,1,93.24001655,23.52940429,21.59250069,8.80700016,46.31362915,311.8254395,29.54800034,10.53199959,19.01600075,23.71133423,16.90733337,24.2033329,16.90733337,98.28201294,0.44645,22.97,0.67805,184.2483063,21.22501526,1.201330096,89328.9375,0.013624132,33.13123894,8.640347885,8.347610641,1.957127506,3.463095121,3.80666249,2.197224577,6.833031733,6.413458957,3.80666249,7.474772182,7.986504939,0.381001636,3.774292332,0,0,0,1,2.102551096,0,0
RAJASTHAN,BARMER,0,71.26840494,25.38074431,27.27350044,15.65666676,46.62457657,558.1356812,42.52000046,8.552000046,33.86000061,30.11466599,19.85866547,33.18733215,19.42133331,156.0519562,0.1445,37.64,0.2228,311.7881127,30.53330384,4.307074428,98497.04883,0.00911383,10.13434458,4.317219262,3.841112258,0.03695316,0.230414148,1.945910149,0.693147181,3.433987204,4.804021045,1.945910149,5.549076085,5.710427017,0.031983046,4.054823804,1,0,0,0,32.66401069,0,0
GUJARAT,SURENDRANAGAR,0,71.85411884,22.73766732,27.58033371,14.41866589,47.66186142,430.2408447,41.26399994,11.01200008,30.2519989,29.03666687,23.60733223,32.5613327,21.60199928,146.5539856,0.1852,33.11,0.26935,321.4432907,30.27381287,4.420412064,100385.2676,0.010968931,19.62876988,5.314694786,2.653592896,0.070091166,2.373808204,1.609437912,0.693147181,4.356708827,5.288267031,1.609437912,6.118097198,6.320768294,0.036813973,3.970291914,0,0,1,0,2.040843176,0,0
HIMACHAL PRADESH,KANGRA,1,75.78916343,32.07215856,23.09366703,11.79300022,35.90126419,697.6351624,38.98800087,6.166000128,32.82200051,28.37766552,18.70699978,30.84766674,13.81866694,119.6322289,0.349325,28.99000001,0.5734625,176.0104161,26.64428483,2.13029781,96592.39942,0.007896038,19.03187848,9.02549033,8.254056802,0.065634297,4.742580791,5.050020346,2.470821211,6.117283888,5.922242829,4.363240598,6.836535517,7.171266452,0.106558603,3.929365151,0,0,1,0,1.658165699,0,0
ODISHA,JAGATSINGHAPUR,0,86.34083334,20.31319445,26.8765831,8.715499878,44.23544502,324.7797394,35.18799973,15.49599982,19.69199944,28.548666,22.35799981,30.18800068,22.33399964,100.0837593,0.221675,30.43979167,0.35776875,248.5592766,28.84128724,3.796262324,100421.4551,0.017183131,21.28626013,9.02549033,8.895759331,3.236253625,5.874623201,4.063406861,2.197224577,5.706883947,5.921258471,3.817168618,6.831780727,7.336040717,0.042199296,3.720961404,1,0,1,0,0.193955647,1,1
JAMMU & KASHMIR,BARAMULA,0,74.30195445,34.26263113,11.1621666,11.17966652,35.98086166,790.4973755,25.38800049,-4.639999866,31.9640007,5.908666611,7.82733345,19.90933418,1.30400002,49.5941658,0.31195,22.19,0.63765,169.9906349,13.59412537,2.451938868,77205.31251,0.006177971,22.93563175,9.984602451,9.723114388,6.305304685,5.899252032,5.153291594,3.258096538,4.919980926,4.795790546,4.672828834,5.762051383,6.586171655,0.099845335,3.73468899,0,0,0,1,0.336759193,1,0
UTTAR PRADESH,HAMIRPUR,0,79.9710001,25.98637083,26.02483368,13.59166622,39.73242188,657.5153809,42.79999924,8.312000275,34.20800018,29.2753334,30.3453331,33.50533295,17.13400078,143.6113434,0.293875,30.67333334,0.468675,279.7851143,30.21815644,2.989182294,99056.85938,0.009084536,15.07429886,7.055047592,6.880459795,1.917014997,3.256923121,3.663561646,1.098612289,4.219507705,5.739792912,2.772588722,6.530877628,6.745236349,0.133218844,3.991757973,0,0,0,1,3.664710754,0,0
HARYANA,GURGAON,1,77.14,28.36,24.81316757,13.39233398,40.02012253,688.1682739,40.35200119,6.888000011,33.4640007,29.51466751,27.93266678,32.27999878,15.39066696,132.4388885,0.197275,31.09916667,0.334875,302.337822,30.58157501,2.964057506,97958.16407,0.007495131,21.2753315,10.63826505,10.64261626,1.780789898,5.983573965,3.610917913,1.791759469,5.568344504,5.318119994,3.33220451,6.282266747,6.520621128,0.043219119,3.986434503,0,0,0,1,3.001526829,0,1
BIHAR,KISHANGANJ,0,88.12,26.5,25.13933372,10.50266647,45.89523697,432.7557678,33.40000153,10.51599979,22.88400269,28.94733429,19.64066696,28.94733429,18.77866554,113.8858719,0.37295,29.155,0.53285,182.9981003,27.77545319,2.639330149,99037.97071,0.01334004,26.9009142,10.8183824,11.07844223,7.573803668,6.831502425,3.218875825,1.386294361,7.342779189,6.480044562,3.044522438,7.342779189,7.787382026,0.088468648,3.900709246,0,0,0,1,1.374296982,0,1
BIHAR,MUZAFFARPUR,0,85.53144193,26.05636371,24.74733353,11.77033282,42.51783371,536.5414429,36.44599915,8.759999752,27.68599892,28.61433315,18.09266663,29.75099945,16.99066639,120.6072388,0.344025,30.34333334,0.539825,277.3819771,30.02616272,3.538748861,99816.36915,0.012388256,19.31012058,9.964106565,10.20157204,4.795277975,6.35358643,3.276966702,1.098612289,6.133398043,5.605741239,3.238486181,6.570881982,6.921155109,0.097580328,3.96081317,0,0,1,0,1.625184375,0,0
ASSAM,BAKSA,0,91.31357993,26.69380583,22.73250008,9.162666321,46.21884156,382.814621,30.55000019,10.74199963,19.80800057,26.31133366,18.41499901,26.64933396,17.33599949,97.82188797,0.3633875,30.0525,0.5526375,151.4300232,27.53400574,2.184157253,99952.97461,0.013742288,29.33279181,10.10428409,9.679452627,9.080970797,8.849651879,3.967793693,2.13833306,7.211630529,6.547724199,3.72387564,7.462409387,7.978477591,0.103862649,3.895864802,0,0,0,1,2.140830423,0,0
MAHARASHTRA,AHMADNAGAR,0,74.61457192,19.12446362,25.54491679,13.76716709,52.11212985,322.9074707,38.79866664,12.40266657,26.38866711,25.36155542,23.85744444,29.79399999,21.68388844,100.2766113,0.220070833,32.91736111,0.366633333,274.2812144,25.50980403,3.365611812,94101.72494,0.011499939,25.33367936,9.02549033,10.40314307,0.994525413,4.742580791,3.535462341,0.693147181,4.740288966,4.832674337,1.791759469,5.664225558,6.233723406,0.060138934,3.847955473,0,0,1,0,1.302290875,1,1
JAMMU & KASHMIR,KARGIL,0,76.48445216,33.96660129,10.02219043,11.30968099,35.16457898,776.7154318,25.26459156,-6.577987518,31.84036119,9.003828215,7.823784797,18.96846695,0.059691871,56.71342483,0.239850451,18.90284617,0.4564053,145.0018709,11.68853051,2.10680642,76132.58715,0.005818452,24.95699067,9.22988182,9.108039697,4.99037757,5.066609379,5.188946451,3.037610201,5.288863345,4.924231763,4.517867375,5.831862947,6.644533371,0.241163284,4.274891367,0,0,0,1,1.016915382,0,0
JAMMU & KASHMIR,PULWAMA,0,75.03718638,33.93292921,12.85316658,12.47299957,38.37845993,787.6678467,28.36800003,-4.131999969,32.5,7.920666695,14.00399971,22.11133385,2.706666708,49.40352631,0.3072,22.6875,0.5777375,158.7959366,14.53856049,1.671346993,80574.1504,0.006815484,25.60531068,10.72209066,10.73838863,7.093740662,7.085984742,5.669880923,3.583518938,5.231108617,5.147494477,4.8978398,6.084499413,6.930494766,0.12828327,3.774292332,1,0,0,0,0.415908724,1,0
BIHAR,SITAMARHI,0,85.53966554,26.57589146,24.25550079,11.74966621,43.71806335,527.687561,35.39599991,8.520000458,26.87599945,28.79733467,17.75333405,29.1653347,16.62666702,122.2237778,0.328925,29.8775,0.476725,271.9183655,29.5570694,3.349360467,99681.62891,0.012504858,19.38736248,10.17605134,10.13037121,6.757953747,5.669435117,3.401197382,0.693147181,6.423246964,5.857933154,3.401197382,6.751101469,7.099201744,0.09417317,3.990371972,1,0,0,0,2.238968456,0,0
MAHARASHTRA,NASHIK,1,74.10191436,20.53829899,24.27937508,13.7832501,51.11982632,321.6818543,37.27000046,10.97399974,26.58500147,24.13716651,22.38433266,28.53433323,20.50183297,124.8433858,0.20235625,30.619375,0.3562375,267.9368134,25.12577592,3.422315539,94029.98389,0.011223243,22.97372056,11.3430398,11.22791999,0.710076526,6.766090811,2.30368268,0,4.975706648,5.436258292,1.700598691,6.327718258,6.685542473,0.056518442,3.879584918,0,0,1,0,2.413986349,0,1
NCT OF DELHI,NORTH WEST,0,77.08686662,28.76877852,25.54950926,10.58253718,41.48728328,476.3544227,37.30644544,11.59422218,25.71222273,28.13685205,19.4064072,30.81363021,19.05866639,112.8041462,0.277877778,29.25272586,0.493995139,271.7975012,28.02555492,2.646036478,97285.77876,0.012619664,23.02513786,8.87744551,7.842318524,5.160033318,4.972319098,3.760871617,1.858705834,5.818616847,5.776958164,3.684093782,6.716570851,7.124048795,0.376723619,4.812456756,0,0,1,0,3.224221331,0,0
BIHAR,MADHEPURA,0,86.869328,26.023787,24.9715004,11.31099892,43.18493652,502.4967346,35.49200058,9.300000191,26.19200134,28.6886673,17.63666725,29.4679985,17.63666725,115.6638412,0.373825,29.70652288,0.559275,247.3680153,29.46059571,3.386211873,99901.88477,0.013150826,20.67963314,10.71747732,10.88440479,5.112131886,5.418742399,2.944438979,0.693147181,6.364750757,5.749392986,2.944438979,6.735780014,7.135687347,0.109228027,3.962240722,1,0,0,0,2.050341133,0,1
JHARKHAND,PALAMU,0,84.05342142,23.91195345,25.04816628,11.52366638,38.13763046,558.2377319,40.06399918,9.847999573,30.2159996,27.65999985,17.96666718,31.48933411,17.59933281,127.083786,0.262625,29.93166667,0.491375,243.3874207,26.91046296,2.425054193,96942.22852,0.010637147,19.36551285,8.274380704,8.107845603,3.18533423,5.334630721,3.784189634,1.609437912,5.087596335,5.726847748,3.401197382,6.745236349,7.029087564,0.0547249,3.942309698,0,0,0,1,0.344778421,1,0
MADHYA PRADESH,BETUL,0,77.87097996,21.87780948,24.63433266,12.65133381,43.69157791,436.5420227,39.7480011,10.79199982,28.95600128,24.8113327,25.54266739,30.6693325,19.44400024,134.2373505,0.22445,30.34902288,0.421175,244.0391312,24.76244507,3.185862482,93443.98047,0.010563185,20.02574539,7.738999554,7.645964397,1.421832507,1.486450017,3.663561646,1.945910149,4.8978398,5.805134969,3.36729583,6.767343125,7.010311867,0.062974799,3.927404107,0,0,1,0,1.091512583,0,0
UTTARAKHAND,DEHRADUN,1,77.97368826,30.46293769,17.33433342,9.967999458,38.17986679,559.8182983,29.5359993,3.427999973,26.1079998,21.58200073,10.66066647,23.28933334,9.726666451,137.0093079,0.2416,24.17333334,0.451275,193.8664818,25.2375885,1.988161386,93058.74805,0.00794035,18.30470753,9.261470131,9.232669243,0.894856082,3.86705687,4.997212274,2.564949357,6.765038977,6.54534966,4.682131227,7.410951876,7.675081858,0.072320662,3.821551102,0,0,0,1,0.472615153,1,0
BIHAR,NALANDA,1,85.45583862,25.22080507,25.7531662,12.0223341,40.05308151,565.5463257,39.39200211,9.375999451,30.01600266,29.08733368,25.02066612,31.63933372,17.76866722,124.0856857,0.3975,30.115,0.569775,289.725586,30.3779541,3.132310749,99911.54688,0.012220988,18.5470953,9.14904935,9.355502637,6.722825167,6.14048357,3.36729583,1.098612289,5.123963979,5.579729826,3.218875825,6.559615237,6.879355804,0.074256771,3.915018514,0,0,1,0,4.472645794,0,0
MADHYA PRADESH,DEWAS,1,76.04946026,22.88816382,25.26316643,14.0583334,45.81052399,466.4278259,40.97999954,10.16800022,30.85600281,25.93933296,25.65066719,31.39666748,19.34933281,140.1518402,0.217775,31.405,0.43755,245.3885193,25.72589264,3.457112492,94707.38477,0.009881612,22.33686066,7.151845861,6.869914595,1.451441413,1.357190098,2.708050201,1.098612289,4.927253685,5.799092654,2.397895273,6.745236349,6.958448393,0.059840001,3.973353261,0,0,1,0,4.548596678,0,0
PUNJAB,SHAHID BHAGAT SINGH NAGAR,0,75.93855836,31.22124182,23.3453331,12.73599911,37.78779984,727.3241577,39.50799942,5.804000378,33.70399857,29.01533318,18.9279995,31.32466507,13.60133362,118.7689896,0.36625,29.11416667,0.54045,237.7115479,28.28231201,2.974203825,97826.81641,0.007448215,15.40677643,7.688649645,0.310925526,4.775168706,3.038343195,4.356708827,1.945910149,5.683579767,5.424950017,3.850147602,6.28785856,6.628041376,0.082731398,3.940934349,0,0,1,0,2.914063106,0,0
BIHAR,SAMASTIPUR,0,86.00657621,25.72284147,25.09975052,11.63950014,41.94153023,530.4809265,36.93400002,9.180000305,27.75399971,28.75833321,18.44599915,30.08599949,17.4449997,119.7390099,0.381375,30.41683334,0.5596625,280.2192765,30.02526246,3.430854083,99901.90724,0.012452586,19.70346547,9.92263024,10.45602985,5.393975323,6.103185772,3.198464828,0.693147181,5.784558372,5.605369353,3.134548142,6.592705707,6.962863632,0.088415626,3.951058311,0,0,1,0,3.395661105,0,0
RAJASTHAN,TONK,0,75.53455421,26.43436591,25.95433331,14.56666708,42.91567421,632.4577026,41.59799958,7.656000138,33.94199944,29.33833409,24.59133434,32.85599899,17.2416668,155.7570343,0.192575,33.84916667,0.3311375,284.6950398,29.51047288,3.276292563,96802.91114,0.007625605,13.29810596,6.776167124,6.43596728,0.243102478,0.954042221,2.636499779,0.895879735,5.450218094,5.325372029,2.433767225,6.163613884,6.316820826,0.04695147,3.958510499,0,0,1,0,4.12788721,0,0
TRIPURA,DHALAI,0,91.83,24.2,24.57900047,10.57466698,46.46979523,396.9565735,32.56399918,9.807999611,22.75600052,27.67733383,18.60733414,27.91466713,18.60733414,81.47036743,0.51255,27.19,0.780975,148.2658844,26.82101593,1.214135319,99718.44336,0.01669748,31.98799611,9.609163967,9.349094394,7.710953495,7.811474421,3.828641396,1.945910149,7.011213987,6.115892125,3.828641396,7.041411664,7.721348613,0.182321557,4.072652651,0,0,1,0,0.775049365,1,1
ODISHA,RAYAGADA,0,83.67474054,19.50742112,26.1732502,9.61683321,42.9086113,361.6077423,36.58200073,14.18199969,22.40000153,27.15866662,21.65299988,30.5710001,21.3083334,101.4450379,0.2912,29.88277288,0.4890625,207.5452309,26.13705216,1.352654994,96648.47559,0.01505503,21.72243357,8.729379403,8.457341143,4.480706893,4.523299988,3.846512874,2.079441542,5.769783698,5.745692564,3.526360525,6.715892218,7.203021724,0.086892613,3.792755313,0,0,1,0,2.581016607,0,0
GUJARAT,VADODARA,1,73.32658465,22.24994838,27.11312581,13.59424997,47.33726883,405.2765808,40.47400189,11.74300027,28.65300131,28.19933319,27.00583315,32.07500077,21.64699984,152.8643837,0.2832,31.78,0.45616875,289.1140462,28.34213982,3.119719536,99948.68166,0.011564274,17.20582581,9.204413831,9.064978709,0.569722568,6.141442213,1.644812803,0,4.668636549,5.810970679,1.314373843,6.642806384,6.811415878,0.067043616,3.898715298,1,0,1,0,1.694496758,1,1
BIHAR,SAHARSA,0,86.58990039,25.81654315,25.16650009,11.50366592,42.80912018,510.3742371,36.29199982,9.420000076,26.87199974,28.73466492,17.74066544,29.81200027,17.74066544,117.1710739,0.406325,28.58416667,0.586,276.0561218,29.85751496,3.486521006,99927.31641,0.012742237,20.82932854,10.44417246,10.84055686,6.737243698,5.249482742,3.091042453,0.693147181,5.525452939,5.693732139,3.091042453,6.66949809,7.053585727,0.133583475,3.947390149,1,0,0,0,0.555435122,1,0
ODISHA,BALANGIR,0,83.18711057,20.34113525,27.03216743,11.2796669,41.02293777,433.5709534,40.98400116,13.48799992,27.4960022,27.48400116,21.53666687,32.78466797,21.53666687,126.7057419,0.213325,31.31083334,0.3627,218.9554673,27.3090683,2.103419602,98104.07618,0.013177015,26.07970906,9.789391073,9.676835577,4.73320327,5.627479755,3.258096538,1.609437912,5.587248658,5.940171253,3.258096538,6.889591308,7.21964204,0.0551193,3.914852333,0,0,1,0,7.112706387,0,0
MADHYA PRADESH,ASHOKNAGAR,0,77.76085129,24.50080569,25.4873333,14.06999969,42.06026459,566.4573975,42.40399933,8.951999664,33.45199966,27.03866577,30.18733215,32.62599945,18.11000061,150.3755798,0.176025,32.545,0.3173,258.0081635,26.13297425,3.475008488,95143.19727,0.008643054,20.58717442,6.739779924,6.6969721,0.905455605,0.628752306,3.433987204,1.098612289,4.430816799,5.739792912,2.63905733,6.652863029,6.829793738,0.043219119,3.927650261,0,0,1,0,0.460097764,1,0
GUJARAT,KHEDA,0,72.95501631,23.07289812,26.91633224,13.77199936,45.9618187,451.4794312,41.06800079,11.10400009,29.9640007,28.39799881,26.60000038,32.35466766,20.60599899,153.858963,0.3029,31.9625,0.46815,305.6116791,28.69636689,3.554640412,99857.80469,0.010594838,13.51533985,9.410321659,9.138754794,2.035137379,5.399511442,1.791759469,0.693147181,4.477336814,5.726847748,1.609437912,6.529418838,6.670766321,0.061800401,3.884908713,1,0,0,0,1.20524204,0,0
RAJASTHAN,SIKAR,0,75.28786863,27.6365832,24.3093338,14.60666656,43.10276794,661.0474243,39.45600128,5.56799984,33.88800049,28.83600044,16.23066711,31.51600075,15.21933365,145.7870789,0.2787,33.41666667,0.4354,321.7985993,29.46273194,3.565704525,95799.46094,0.006945222,11.46011496,7.503302815,7.330189017,1.82271955,2.072821889,2.772588722,1.098612289,5.411646052,5.123963979,2.63905733,5.955837369,6.171700597,0.053540767,3.998430033,0,0,1,0,30.11989768,0,0
ASSAM,HAILAKANDI,0,92.58869582,24.49388711,24.4936676,10.31133366,48.50109482,380.1373596,32.04000092,10.77999973,21.26000214,27.84200096,18.83866692,27.85933304,18.83866692,77.21497345,0.4420625,27.30916667,0.6896125,146.0043946,26.65343629,0.848066643,99186.33985,0.016102257,31.38553715,10.14596556,10.00099673,8.979078497,8.837863248,4.17438727,1.945910149,6.944087208,6.12249281,4.17438727,7.101675972,7.82084088,0.164984637,3.929371644,0,0,1,0,0.710207148,1,0
ARUNANCHAL PRADESH,EAST KAMENG,0,93.14432607,27.19272267,17.14149952,8.538666249,41.14781761,452.1091919,25.78399945,5.030000091,20.75399971,22.04066659,12.06766701,22.04066659,10.97666645,90.78620911,0.44315,25.32791667,0.753675,123.0132094,20.32903824,1.478598014,88232.12598,0.011794632,31.80407334,7.445417231,7.195013144,5.140305074,5.033911172,3.920746462,1.791759469,6.937916979,5.925162921,3.804435315,6.937916979,7.489789848,0.321312759,3.826095754,0,0,0,1,2.665332781,0,0
ODISHA,GAJAPATI,0,84.16065095,19.17309091,23.6843338,8.479332924,44.52495956,309.6155701,32.15200043,13.1079998,19.04400063,24.84866714,19.66600037,27.21266747,19.41466713,93.86662292,0.363875,27.5225,0.589475,195.0233383,25.04412995,1.44495368,94879.73047,0.01521011,23.9027052,9.018741665,8.781287007,4.411061165,4.385730825,4.33073334,2.48490665,5.899897354,5.877735782,3.912023005,6.894670039,7.43366654,0.150572858,3.921230486,0,0,0,1,5.79082115,0,0
ANDHRA PRADESH,KHAMMAM,0,80.63320834,17.48395296,27.8279171,10.73916674,45.18377114,342.9619904,40.34399986,16.56799984,23.60400105,27.94533348,23.93033314,32.6356659,23.45733357,114.7170487,0.3263625,31.23041667,0.5173125,205.6024285,26.4840561,2.558492006,98710.31544,0.016241759,27.78564883,9.774054783,9.561819349,4.452501368,3.711110161,3.384246606,1.098612289,5.377587881,5.724833063,2.63905733,6.59509979,6.991559706,0.075800278,3.791016046,0,0,1,0,2.545217012,0,0
KARNATAKA,CHITRADURGA,0,76.27889723,13.91026055,24.37450027,10.27033329,54.92157364,215.1750183,34.81999969,16.12000084,18.69999886,23.43199921,24.92533302,27.64333344,22.31733322,86.50326538,0.2638,31.705,0.411025,264.7370148,24.59172211,3.249632359,92779.94532,0.013969233,26.94546127,9.930321164,9.791808648,0.507014806,4.640502138,3.713572067,0.693147181,4.727387819,4.836281907,1.945910149,5.549076085,6.274762021,0.063756966,3.759454407,1,0,0,0,0.042155155,1,0
MADHYA PRADESH,SHIVPURI,0,77.83976701,25.59541197,25.42608357,13.44849968,39.68233872,618.7223511,42.10999871,8.221999884,33.88799858,27.86766625,24.81933308,32.86166573,17.3369999,148.8737793,0.2498875,31.595,0.39895,258.740408,27.63755951,2.715922922,96826.92579,0.008424329,17.11960125,6.607247512,6.485595707,0.41698338,1.056658393,3.34975017,1.098612289,4.343467983,5.720290277,2.636499779,6.597743719,6.773014916,0.051633538,3.951855747,0,0,0,1,2.813864934,1,0
ANDHRA PRADESH,MEDAK,1,77.77302361,17.88955052,26.46050072,12.52283335,46.69747162,372.1382751,40.70200157,13.86399984,26.84200001,25.97700024,22.81866646,31.51000023,22.06066704,118.2679978,0.287325,31.59625,0.449275,287.6151123,25.6707779,3.453394652,94723.07423,0.01250872,26.23616553,11.32324939,11.16641358,2.646127842,6.415573506,3.156774023,1.098612289,5.420534999,5.497436898,2.197224577,6.520089439,6.891049271,0.070937373,3.849216308,0,0,0,1,5.901832412,0,0
MAHARASHTRA,SINDHUDURG,0,73.69184179,16.08288857,26.725667,9.127666951,58.80356598,144.9678269,33.89599991,18.37199974,15.53999901,26.26833344,26.06133366,28.76900005,25.34799957,148.0957794,0.2634375,31.24826144,0.47955,232.0127106,26.2425705,2.405363679,99762.36428,0.016376563,21.89369727,9.02549033,8.895759331,3.236253625,4.742580791,2.381086967,0,4.510315798,7.215285933,0.895879735,8.041861925,8.229827463,0.094708636,3.85596917,0,0,1,0,1.099502413,0,0
HIMACHAL PRADESH,MANDI,1,76.85161547,31.82943678,20.28633308,9.566666603,34.16666794,624.5780029,33.82799911,5.828000069,28,24.90133286,16.21933365,27.20999908,11.9333334,108.4367371,0.377075,23.53333334,0.8102,161.4699822,20.92397461,2.102705359,88110.22266,0.006862671,20.53782177,7.507237718,6.708323099,0.615214621,0.655873087,5.313205979,3.044522438,6.517671273,6.188264123,4.663439094,7.00488199,7.440733707,0.378436436,3.820455812,0,0,0,1,0.046517673,1,0
HARYANA,YAMUNANAGAR,1,77.3231276,30.2250253,23.52700043,12.71333313,39.16615295,680.8909302,38.87599945,6.415999889,32.45999908,28.5106678,26.40533257,30.90266609,14.32266617,125.8284378,0.379025,28.7025,0.609825,230.8260155,28.02488862,3.019691944,97439.64258,0.008183425,18.07911682,11.49277697,11.51465522,0.790497981,6.709490331,4.727387819,2.079441542,6.077642243,5.945420609,4.043051268,6.803505258,7.109062136,0.114444134,3.916264,0,0,0,1,3.110389034,0,0
KARNATAKA,YADGIR,1,76.9133569,16.62652615,27.04033279,11.44400024,50.95280075,296.2424011,39.11600113,16.65600014,22.46000099,26.59733391,24.00066757,31.00266647,23.5806675,105.0763168,0.233525,34.3675,0.333475,328.8404847,27.60484467,3.714675427,95895.64454,0.012583407,23.3112154,8.888157296,8.856885875,0.442536069,3.128508548,3.17805383,0.693147181,4.007333185,5.153291594,2.302585093,6.063785209,6.527957918,0.049979932,3.844279353,0,0,1,0,0.329984189,1,0
HIMACHAL PRADESH,KULLU,1,77.14208684,32.12097037,12.0958333,9.301667214,34.995121,615.5097046,24.64599991,-1.94600004,26.59199905,17.81566668,9.073666812,18.66200066,3.78899993,54.73906136,0.3164375,16.3475,0.7701875,157.295519,8.070321659,2.689595938,72110.79981,0.004979304,26.10442305,5.214132384,5.038017731,0.16506645,0.131195797,5.519119444,3.111288134,6.148577861,5.342093815,4.724875448,6.239300235,7.119367515,0.185944467,3.725747133,0,0,0,1,0.821743068,1,0
KARNATAKA,RAICHUR,0,77.26623458,16.20193511,27.83533382,12.03133297,55.3938179,265.6842041,39.24199868,17.50799942,21.73399925,27.32233334,26.23233319,31.47866631,24.75366688,105.003212,0.200875,35.67613096,0.3002625,332.7038041,27.97135315,3.964537621,96450.9336,0.012998367,24.72953367,8.615992026,8.17858907,1.196732165,3.274033602,3.065613245,0.34657359,4.039189052,5.090294423,1.935600505,6.043813445,6.497526298,0.036196667,3.851611582,1,0,0,0,2.496373805,1,0
HIMACHAL PRADESH,SHIMLA,1,77.7223529,31.25368725,15.13374997,9.867500305,37.81898308,568.5401306,27.44799996,1.359999955,26.0880003,19.98599911,11.88033343,21.04166604,7.388333321,64.16138268,0.29528125,19.176875,0.66503125,141.6616793,11.3092247,2.538802297,74413.84717,0.005828923,26.65401269,6.679342358,5.736700414,0.055024685,0.577486188,5.442220899,2.962127899,6.006031524,5.461564391,4.835493934,6.355142223,7.121071034,0.159135948,3.738942032,0,0,0,1,1.09073214,1,0
KARNATAKA,CHIKMAGALUR,0,76.03332742,13.44987027,24.26166725,11.14333344,57.82136154,199.2948456,34.70800018,15.43599987,19.27199936,23.43600082,24.7266655,27.30133247,22.35533333,85.88239288,0.230725,31.02583334,0.4683,204.462265,22.5387207,2.457822561,89943.48438,0.013770083,23.36856747,9.829191853,9.731267238,0.436359856,4.10855195,4.025351691,0.693147181,4.86753445,4.976733742,1.945910149,5.613128106,6.431331082,0.065319466,3.741234684,0,0,0,1,5.0675042,0,0
MAHARASHTRA,AMRAVATI,0,77.76075954,20.95925738,27.18927765,12.89522171,44.64402008,429.6651204,42.81599935,13.93066629,28.88533274,26.64444351,28.78888893,33.24244436,22.24666659,124.2817459,0.184141667,33.29666667,0.348558333,268.461764,26.72001801,3.138859987,96928.15104,0.011186411,24.12992954,7.58128138,7.442477735,0.125419881,3.783577807,3.421666924,1.939037053,5.044411426,5.522483646,3.29400284,6.4390726,6.773008282,0.040330259,3.977097007,0,0,1,0,3.361178561,0,1
CHHATTISGARH,JASHPUR,0,83.93588788,22.88413414,22.88066673,11.21100044,39.72410965,486.1045532,36.86800003,9.199999809,28.2480011,25.89800072,16.73466682,28.70266724,16.69599915,127.0584335,0.290825,28.755,0.453825,225.3968735,24.82731019,2.278692961,93642.17774,0.010990947,19.21121693,8.772643406,8.584278425,2.767426195,4.356010761,3.850147602,1.609437912,5.59471138,6.054439346,3.401197382,6.963189986,7.307202315,0.088087188,3.816337755,0,0,1,0,2.467776237,0,0
KARNATAKA,KOPPAL,0,76.32570954,15.60773006,26.11899949,11.15199947,55.87903214,222.8612747,36.68000031,16.72599984,19.95400048,25.50933362,25.81466675,29.3010006,23.65666676,90.08528137,0.2634125,33.10666667,0.4014625,327.0962906,26.76002656,3.642866672,94981.24317,0.013093377,22.71856738,10.97915251,10.92326938,1.073300494,5.346319629,3.683854286,0.895879735,4.519420027,5.017696312,2.124247621,5.861576988,6.460879451,0.052130738,3.838364878,0,0,0,1,0.716084827,1,0
MAHARASHTRA,CHANDRAPUR,0,79.62951188,20.24431496,27.13920832,12.53658342,41.46196366,462.9957963,42.79100037,12.63499952,30.19400072,27.41733313,21.61199952,33.45300007,21.47466613,138.230259,0.261925,29.77409722,0.4836875,244.4605847,26.76603471,2.477396101,98035.62403,0.012535824,25.48815537,8.840340269,8.746130135,0.89592779,3.813570959,2.753383555,1.553652024,5.205301321,6.008125382,2.717608344,6.930464392,7.171967787,0.091794367,3.964125092,1,0,1,0,2.392305065,0,1
ASSAM,KAMRUP,1,91.38707511,26.08299819,24.09899998,9.393666745,46.09357071,393.7624512,31.55000019,11.17000008,20.38000011,27.63266563,18.38066673,27.94933319,18.38066673,88.13918686,0.3769375,28.4675,0.6222875,152.2391244,27.87468873,1.972852737,99683.79885,0.014888634,28.45285106,10.05348131,9.976636361,9.253651104,9.020815061,3.583132987,1.868834809,6.79943851,5.908308106,3.583132987,6.916783282,7.520379511,0.224959749,3.880791468,0,0,1,0,3.355196863,0,1
ANDHRA PRADESH,ADILABAD,1,79.47688198,19.10161541,27.54508305,12.12650013,42.5861435,425.0765381,42.20800019,13.97200012,28.33799935,27.55766678,22.97166729,33.47366524,22.31599999,126.84478,0.305925,30.47,0.5250625,257.8003884,27.20443116,2.561267198,98327.55177,0.013356562,27.36667252,9.02549033,9.196574957,2.143669223,4.742580791,3.34975017,1.777674031,5.277997507,5.765254974,3.039966598,6.676054543,7.013136894,0.071335376,3.903339919,0,0,1,0,2.676926164,0,0
KARNATAKA,MYSORE,0,76.45132329,12.15593098,24.35361099,10.13077799,59.79469681,175.9353434,33.70800018,16.76799965,16.94000053,23.82377815,24.96177801,27.03200022,22.81933276,88.28966777,0.33565,28.66006945,0.502125,220.4920985,23.51336823,2.671765646,92459.76172,0.014402284,31.60172558,10.74603416,10.69459855,1.310208139,5.088261247,5.021354894,1.194506313,5.434886067,5.405201924,2.988146611,6.142779146,6.876881917,0.087002104,3.793882783,0,0,0,0,1.013699249,1,1
RAJASTHAN,GANGANAGAR,0,73.97726242,29.83537101,25.1774168,14.99016667,40.71652222,792.9293213,42.09000206,5.274000168,36.81600189,31.682333,20.27099991,33.66366577,14.42799998,114.7965088,0.2624125,34.33066407,0.3528,293.9017678,30.76615678,2.996458889,98510.06446,0.00641983,13.76577711,7.34818669,6.57757041,1.303421563,2.503712708,3.020127356,1.098612289,4.637595672,4.319174156,2.481422315,5.233746844,5.56129516,0.047101517,4.08308745,1,0,0,0,0.961945689,1,0
GUJARAT,PATAN,1,71.94530815,23.63181247,27.34066677,14.87600041,46.95540047,473.8603516,42.15000153,10.46600008,31.68400097,29.03733349,26.93000031,32.92533303,20.89266682,154.0261384,0.27865,32.77,0.42015,285.983429,30.06792222,4.223186106,100293.1495,0.011391285,14.76671934,6.13304098,5.761323917,0.050926847,2.38134618,1.609437912,0,4.006671591,5.384400365,1.497866137,6.197436584,6.34120931,0.06577996,3.9326628,0,0,1,0,2.637340195,0,0
RAJASTHAN,ALWAR,0,76.54949291,27.37638295,24.52216625,13.87983322,40.6881733,672.1285706,40.35000038,6.506000042,33.99399948,28.90766716,16.31666565,31.90999985,15.22699976,146.0735779,0.267875,32.55,0.463225,274.6032506,29.60345994,2.817529142,96809.12989,0.007390746,13.61688948,8.241791066,7.793874003,1.444566519,2.90305819,3.215665541,1.609437912,5.572320264,5.501124915,2.967447098,6.369895119,6.535934882,0.074600475,3.971289716,0,0,1,0,6.730923729,0,0
JAMMU & KASHMIR,SRINAGAR,1,74.91485929,34.17577928,11.5010004,12.05066681,37.20719528,790.6124268,27.1079998,-5.28000021,32.38800049,6.248000145,12.88866615,20.8433342,1.391999841,47.65558243,0.3296,23.3125,0.605775,161.0368996,14.78991089,1.251606644,81285.44141,0.006721058,23.56530237,10.25442427,10.63204971,7.785418383,6.456752374,5.59471138,3.496507561,5.252273428,5.075173815,4.8978398,6.033086222,6.901737207,0.117783036,3.736180415,0,0,0,1,0.286713089,1,0
UTTAR PRADESH,BALLIA,0,84.10546321,25.87538412,25.29421261,12.91521968,39.93921266,627.6712419,40.6126927,8.272675423,32.34335074,29.0226033,25.3399599,32.04168548,16.67294322,136.6899857,0.324394889,30.2409363,0.495750039,264.9171191,29.29600222,3.040108999,98686.02188,0.00952228,15.95040807,7.885815707,7.708380733,3.150209089,4.368197738,3.659751153,1.224897392,5.319173381,5.769735529,3.173321416,6.66159583,6.905322285,0.085034833,4.029625922,0,0,0,0,1.792442133,0,0
MAHARASHTRA,BULDANA,0,76.39847413,20.68901414,26.42437506,12.35375023,45.85437012,395.3346787,40.64799882,13.70900012,26.9389987,26.89233351,27.30766631,31.90283299,21.81616688,122.2326985,0.21513125,32.25875,0.38068125,271.1371461,25.51307641,3.448066906,94889.02687,0.011058611,20.83178938,5.858487941,5.025123557,1.089864313,3.250666031,3.376906445,1.497866137,5.01957676,5.321066309,2.687296033,6.292217215,6.632504715,0.048465899,3.935593363,0,0,1,1,1.594705328,1,1
ASSAM,DARRANG,0,91.90644978,26.31128445,24.12883377,9.667666435,46.48810577,400.0827332,31.7840004,10.98799992,20.79600143,27.35666656,18.37133408,28.11800003,18.37133408,89.53730011,0.05625,25.74166667,0.098525,141.4284325,27.11258088,1.328722775,98634.17579,0.014761522,30.33901692,10.22465332,10.34033514,9.191986104,9.411200183,3.465735903,1.945910149,6.469250317,5.846438775,3.465735903,6.803505258,7.380879036,1.264126727,8.094866726,0,0,1,0,0.201591979,1,0
JAMMU & KASHMIR,DATA NOT AVAILABLE,0,74.90383187,35.53080821,10.12627106,10.60129944,33.14628224,717.3046692,24.24661557,-5.232120892,29.59443966,9.114888232,8.130382784,18.35623082,0.946100639,53.8130837,0.23758956,18.47690018,0.451593887,141.8208673,12.11631021,1.952058716,72304.34919,0.005607441,23.11344603,8.74174404,8.637169225,4.796835028,4.927130576,4.869971466,2.869725587,4.975261493,4.649092762,4.251277184,5.496184085,6.245306741,0.191801163,3.876230598,0,0,0,1,0.837751031,0,0
HARYANA,KARNAL,0,77.02205593,29.64723304,23.86383247,13.16866684,39.30945587,706.9816284,39.65200043,6.171999931,33.5,29.07733345,26.71666718,31.51133347,14.26466656,125.7047501,0.29925,29.53333334,0.4349,266.7915459,29.00357972,3.155519843,97789.66212,0.007795171,14.52401447,11.99851654,11.94816181,5.531832337,7.855445191,4.077537444,1.791759469,5.529429088,5.411646052,3.496507561,6.302618976,6.586171655,0.060624622,4.005892754,0,0,1,0,2.559645555,0,0
HIMACHAL PRADESH,UNA,0,76.21028484,31.58051681,22.81733322,11.84466743,36.8717041,680.9942017,38.28800201,6.164000034,32.12400055,27.87666702,18.34066582,30.39666748,13.77066612,123.1981125,0.30145,28.1475,0.612675,184.9022141,25.0149704,2.034921587,93737.28126,0.007531118,18.58184624,8.423880157,8.104203805,0.353682755,1.728671053,4.836281907,2.302585093,6.054439346,5.837730447,4.158883083,6.693323668,7.01571242,0.112956593,3.919743128,0,0,1,0,0.095535271,1,0
MADHYA PRADESH,MORENA,0,78.3723,26.6711,25.62400055,13.87333298,39.03143692,703.4989014,42.63199997,7.087999821,35.54399872,29.51066589,24.02799988,33.34600067,16.01200104,145.2641144,0.329925,32.555,0.4531,272.2993546,30.25252686,2.949269653,98729.94141,0.008251018,15.64873409,5.785850866,5.555977853,0.359595818,0.938303187,3.465735903,1.098612289,5.686975356,5.697093487,2.944438979,6.54534966,6.7310181,0.051168287,3.970999211,0,0,1,0,4.749302956,0,1
UTTAR PRADESH,BAREILLY,0,79.51390771,28.40942808,24.78383255,12.76766586,39.83919907,637.3786621,39.98799896,7.940000057,32.04800034,28.98066711,16.91533279,31.39333344,15.96533394,130.9875641,0.36745,29.895,0.5589,247.0905762,29.04293214,3.165930748,98551.81446,0.008870986,18.59160328,7.792381954,7.679355081,5.170154304,4.538774107,3.931825633,1.386294361,6.068425588,5.828945618,3.610917913,6.744059186,7.020190708,0.100975917,3.994293998,1,0,0,0,1.539573073,0,0
UTTAR PRADESH,ALIGARH,0,77.98053083,27.76788972,25.1048336,13.54433346,39.56167221,695.4935303,41.29999924,7.099999905,34.22800064,29.59066582,28.40266609,32.72999954,15.52466679,141.2017975,0.347,30.8225,0.459775,268.432415,30.24925385,2.963658869,98400.57618,0.007971985,15.70651341,7.32811564,7.206087107,4.101570744,4.17389629,3.465735903,1.386294361,5.568344504,5.568344504,3.258096538,6.473890696,6.672032945,0.076961041,3.975545386,0,1,0,0,1.244142756,0,0
KARNATAKA,BIDAR,0,77.32368313,18.01003518,26.39150047,12.87166595,48.04414368,372.2313538,40.86800003,13.86800003,27,25.74600029,22.7966671,31.42333221,22.01200104,114.0560608,0.1971,33.875,0.372625,288.9883728,25.88392029,3.545902729,94240.34571,0.012046643,26.51591397,9.499185972,9.373069443,2.268004343,3.502128825,3.295836866,1.098612289,5.365976015,5.38907173,2.397895273,6.463029457,6.863803391,0.042819997,3.90751285,0,0,0,1,0.320261634,1,0
WEST BENGAL,KOLKATA,0,88.35583225,22.55525234,26.96450043,9.80700016,43.89883423,385.0243835,36.0320015,13.69200039,22.34000015,29.25600052,21.28666687,30.52000046,21.28666687,98.76146698,0.14565,31.0075,0.25195,291.1684418,29.06613313,3.112193108,100443.4043,0.016339092,29.5948391,0,0,0,0,3.713572067,1.791759469,6.075346031,5.837730447,3.713572067,6.881411304,7.396335294,1.252762968,8.094744678,0,1,0,0,0.926103763,1,0
RAJASTHAN,PRATAPGARH,0,74.77342033,24.02306286,25.75366688,13.85249997,44.24686051,479.7376099,40.8920002,9.920000075,31.09200096,26.80566692,26.39166641,31.9556675,19.36333275,149.2660828,0.2532125,32.63483334,0.4473125,270.4889603,26.66238175,3.292035759,96201.93751,0.009332001,19.69584037,7.638902002,7.379368433,0.35308873,1.787361119,1.791759469,0.693147181,4.503499724,5.703760252,1.609437912,6.645740742,6.809587227,0.049363815,3.930084843,0,0,1,0,0.434472985,1,0
TRIPURA,NORTH TRIPURA,0,92.04809285,24.11588918,24.40966702,10.30799961,46.60881424,386.3322449,32.31399918,10.19799996,22.11599923,27.432333,18.5899992,27.63300038,18.5899992,80.46256256,0.510875,26.95208334,0.756275,147.4496422,26.8011261,1.174456701,99673.2295,0.016640056,31.85594369,9.983714378,9.71157064,7.997319486,8.116622687,3.901513322,1.791759469,6.925878812,6.110219477,3.901513322,7.030354159,7.721343799,0.279338924,3.951824118,0,0,1,0,1.897065215,1,0
UTTAR PRADESH,JYOTIBA PHULE NAGAR,0,78.32935972,28.81354915,24.33616638,12.8516674,39.91201019,652.6738281,39.69599915,7.495999813,32.20000076,28.84466743,27.50933266,31.31866646,15.46266651,129.6808167,0.3399,29.53902288,0.55185,239.4315339,28.52318726,3.255057574,98025.27735,0.008550702,14.90666914,7.839605059,7.703161043,1.827818952,4.333270401,4.219507705,1.609437912,6.01615716,5.811140993,3.663561646,6.694562059,6.962243464,0.09531018,3.943279395,1,0,0,0,0.165928743,1,0
WEST BENGAL,DARJILING,0,88.30464583,26.82675254,22.81547229,9.306499958,45.35356458,409.2147776,30.2626667,9.777333498,20.48533312,26.67433326,17.75933361,26.67433326,16.86333354,113.3565089,0.407708333,25.09625,0.694483333,161.1464437,26.26175461,2.070376084,96607.04851,0.012861933,27.10483408,10.35885974,10.26540571,6.259639785,4.742580791,3.580564489,1.614718695,7.632323295,6.704074658,3.396433438,7.632323295,8.048583258,0.265070471,3.837082092,0,0,1,1,0.330449176,1,1
ANDHRA PRADESH,WARANGAL,1,79.65721126,17.95507998,27.57816696,11.48366642,44.18833923,371.9784546,41.08000183,14.90400028,25.98800278,27.53866577,23.67133331,32.60933304,22.96999931,112.7154083,0.34575,30.535,0.542575,264.1360169,27.1419693,3.490261496,97981.20313,0.014465282,24.89007664,10.46877698,10.34145218,3.549741252,4.629683359,3.496507561,1.609437912,5.262690189,5.552959585,2.944438979,6.476972363,6.88550967,0.076961041,3.803323589,1,0,0,0,1.03852902,0,0
HARYANA,HISAR,0,75.808783,29.243179,24.59433365,14.28266621,40.87769699,736.4101563,40.7879982,5.84800005,34.93999863,30.18333435,19.98666573,32.58866501,14.61133385,122.1495209,0.29705,31.0575,0.420675,297.9148865,30.1991745,3.033365786,98071.05469,0.006884919,12.22395087,10.81905397,10.74200844,0.20997964,6.839686319,3.496507561,1.609437912,5.159055299,4.86753445,3.17805383,5.780743516,6.075346031,0.065319466,3.972176928,1,0,0,0,4.250293891,0,1
JHARKHAND,CHATRA,0,85.00315818,23.7291776,24.92000008,11.46333313,39.43626404,517.0731812,39.38399887,10.31599998,29.06799889,26.97866631,18.26799965,31.04399872,18.03999901,119.6591949,0.254975,30.1725,0.4497875,238.0939484,25.85873184,2.515419722,94792.5586,0.010937052,19.10768914,8.457755873,8.226004243,3.22938149,5.450970518,3.931825633,1.945910149,5.342334252,5.783825182,3.583518938,6.768493212,7.11395611,0.057088967,3.849083206,0,0,1,0,3.086705748,0,0
UTTAR PRADESH,AGRA,1,78.09430798,27.01113202,25.38274956,13.82516671,39.39963341,705.2394409,41.88199807,6.792000056,35.08999825,29.54866696,16.74433327,33.04400063,15.65666676,137.5239258,0.2778,31.41791667,0.3879625,275.047165,30.29506836,2.903122247,98656.58692,0.00812125,14.5900147,7.313301279,7.261042997,1.978948395,3.927838927,3.555348061,1.386294361,5.680172609,5.605693923,3.33220451,6.463009986,6.688975443,0.041610173,3.985748848,0,0,1,0,0.780141629,1,0
PUNJAB,SAHIBZADA AJIT SINGH NAGAR,1,76.7042039,30.82358989,23.22875023,12.18950033,38.3639431,684.0422669,38.25399971,6.487999916,31.76599885,28.30999947,22.30433273,30.70100022,14.033,120.3724747,0.29538125,30.21833334,0.46959375,230.4172859,27.8101593,2.973397374,97010.1504,0.007605131,17.05975914,10.68177271,9.607639908,4.365135853,6.328230145,4.664150585,2.191013318,5.952807996,5.724928931,4.145773255,6.600720349,6.918139203,0.065313296,3.960230959,0,0,0,1,0.661214006,1,1
UTTAR PRADESH,FAIZABAD,0,82.25573706,26.7015136,25.01433372,12.56066704,40.24822617,603.1671753,39.39200211,8.184000015,31.20800209,28.83933258,23.75266647,31.14666748,16.58399963,135.8156128,0.344875,29.62,0.5414,270.834137,29.27018891,3.245170296,99304.82618,0.010392609,14.77894306,7.916478474,7.743026511,3.260820571,5.339446541,3.583518938,1.098612289,6.135564891,5.796057751,3.135494216,6.733401892,6.981934677,0.100975917,4.034240638,1,0,0,0,1.672582874,0,0
BIHAR,KATIHAR,1,87.6448775,25.54546869,25.20466614,10.91999912,42.45063019,484.9510193,35.33599854,9.612000465,25.72399902,29.25133324,18.13066673,29.40066719,18.13066673,113.6247864,0.33915,28.91666667,0.52555,233.6642228,29.46457062,3.243883312,100052.5098,0.013562903,23.91401863,10.82202264,11.28049365,8.292014877,6.737737601,3.218875825,0.693147181,6.49375384,5.843544417,3.218875825,6.787844982,7.212294469,0.106609735,3.940853387,0,0,1,0,2.461413536,0,0
NAGALAND,KOHIMA,1,94.12907594,25.78103872,19.6453433,10.19501127,43.85373561,472.9262904,29.20453507,5.767048809,23.48998656,23.94211729,13.82863461,24.67223886,13.1556462,99.77763925,0.382292535,24.50696857,0.609082465,174.8894879,21.00413089,1.885504487,87539.88033,0.011146609,29.76778981,8.702921063,8.129745776,4.206989271,5.205771115,3.906951871,2.098917946,6.602379525,5.856263247,3.795201145,6.822966794,7.328353088,0.424547217,4.448219354,0,0,1,0,3.875291029,0,0
ARUNANCHAL PRADESH,UPPER SIANG,0,94.91805527,28.83355473,14.10613314,9.467777761,41.61516584,488.3747386,23.76306629,0.879200006,22.75146637,19.5321111,8.803355555,19.5367555,7.594533249,87.28592097,0.361688333,19.3601121,0.714919167,123.0360631,15.64298401,1.533488109,81662.27793,0.010568685,28.83818185,6.919469901,6.465873696,4.068766823,4.183841606,4.014175964,2.245623448,6.770949776,5.769062224,3.795361016,6.783477214,7.367682402,0.257227365,3.71049752,0,0,1,0,2.412851657,0,0
KARNATAKA,CHAMRAJNAGAR,0,76.86446408,11.71180311,24.53866673,10.6913333,62.04492569,165.5919648,33.90600014,16.67599964,17.2300005,23.75266648,24.87633324,27.0063324,22.76033307,82.81798172,0.3114,30.63041667,0.51815,210.4239769,23.33294068,2.054433674,90806.5,0.014126616,26.38211728,8.864773415,8.365557298,0.130493723,4.088433254,4.683030623,1.777674031,5.290532069,5.156671504,2.975321276,5.802291765,6.594674451,0.09292524,3.775747717,0,0,1,0,1.898922787,1,0
TAMIL NADU,VILUPPURAM,0,79.12283585,12.01630152,26.67291737,9.878832817,55.30482864,254.3316879,35.87199974,18.00600052,17.86599922,25.93833351,24.77100087,29.6536665,23.35766602,80.46148682,0.3773125,32.66666667,0.6280875,310.6529274,29.35000382,3.124081731,99235.98048,0.015636262,26.7964151,10.35725311,10.16213141,7.781491178,6.428101977,5.104013371,2.215408399,4.942839967,5.377374488,3.592693508,6.27803014,6.938254379,0.112729809,3.827552517,0,0,1,0,0.753359396,1,0
PUNJAB,FATEHGARH SAHIB,0,76.3653157,30.63222075,23.61345606,13.30197078,38.90876091,736.3084808,39.75463158,5.580912251,34.17371937,29.4878011,19.0713276,31.60805232,13.72787725,121.6445301,0.35543443,29.14434576,0.515360307,252.337578,28.66802971,2.840947042,97741.67161,0.007074946,15.36966899,9.16925246,9.037308689,5.08287543,4.065828391,4.057992627,1.696806242,5.473403821,5.240784285,3.58182267,6.139058233,6.442861636,0.088622872,3.934991202,0,0,0,0,1.865857666,0,0
TAMIL NADU,THIRUVARUR,0,79.44857431,10.53094576,28.54633332,8.395999909,56.62969208,228.3099289,36.24399948,21.41200066,14.83199883,26.57600022,27.52900029,31.08166695,25.5773325,87.5053711,0.31375,34.3725,0.5041875,304.4015046,29.39026032,3.788547874,100599.4972,0.016417953,18.61096383,9.02549033,8.895759331,3.236253625,4.742580791,5.865447829,2.914472809,4.801866449,5.569915368,4.363240598,6.487926055,7.025383031,0.079977393,3.80420197,1,0,0,0,0.601848329,1,0
RAJASTHAN,SAWAI MADHOPUR,0,76.22069012,26.11714871,26.0593338,13.95300055,41.0624199,641.011139,42.12599945,8.145999908,33.97999954,29.20699978,24.97666741,33.2076664,17.34566689,159.3186264,0.22825,31.995,0.3596625,281.0596143,29.64509354,3.015377791,97537.2129,0.007955726,12.1203158,5.725084647,5.883458019,1.562453844,0.492856799,2.802901033,1.098612289,4.248495242,5.62581931,2.564949357,6.491447196,6.637895755,0.057834151,3.910447303,0,0,1,0,2.364187132,1,0
TAMIL NADU,SIVAGANGA,1,78.5986377,9.915024317,28.92533302,9.019333839,59.25974274,216.9694977,36.80400085,21.58399963,15.22000122,28.20933342,27.46333313,31.38933372,26.01133347,70.43455505,0.3973,35.50333334,0.58105,265.8936615,28.87688599,2.665898919,98779.28321,0.01559871,27.12727595,10.48732553,10.36377303,2.849810647,5.983542626,5.579729826,2.772588722,5.030437921,5.303304908,4.060443011,6.159095388,6.884486652,0.085030249,3.774770412,0,0,0,1,3.613088829,0,0
JAMMU & KASHMIR,GANDERBAL,0,75.19996408,34.29466593,9.22064753,11.2285708,34.99416206,780.9948208,24.41423096,-7.347986694,31.74918525,7.75892784,7.171814948,18.24800919,-0.787439765,52.75381434,0.236538815,18.28453591,0.447663986,141.8075865,10.7564107,2.095880548,74844.27173,0.005719673,25.00196643,9.176280565,9.058176629,5.209876153,4.986062538,5.189423978,3.074457105,5.237668633,4.851436737,4.533947459,5.767756068,6.608881731,0.24828668,4.299735781,0,0,0,1,1.076111074,0,0
UTTAR PRADESH,JALAUN,0,79.29575129,25.88966339,26.01049995,13.75166702,39.62385178,657.6473999,43.12400055,8.260000229,34.68799973,29.25066757,24.98600006,33.64666748,17.19599915,146.7230225,0.288575,31.57,0.44055,273.0234795,30.26012574,2.89736116,98876.45313,0.008664939,14.48187685,6.790523286,6.599485981,2.17772785,3.993965391,3.465735903,1.098612289,4.290459441,5.840641657,2.772588722,6.64118217,6.827629235,0.058268908,3.997512391,0,0,1,0,3.695520927,0,0
MAHARASHTRA,HINGOLI,0,77.31915803,19.60507461,26.83810005,12.81660004,45.13398743,415.187262,42.13199997,13.73679981,28.39519997,27.19360046,22.70960007,32.57213287,21.95586662,124.4143066,0.215505,32.2555,0.380915,293.1283051,26.49384461,3.16447475,95702.62266,0.011690092,24.4062706,8.15366146,7.962166594,0.500073724,3.37941454,3.329895312,1.755295158,5.349956551,5.620807462,2.900012178,6.603513208,6.950327737,0.053577359,3.918879176,1,0,0,0,2.334011579,0,1
RAJASTHAN,DHAULPUR,0,77.70334294,26.68078782,25.76906433,14.04972402,42.45584768,609.0685311,41.18677078,8.060041676,33.1358959,29.03459732,22.3369341,32.65737808,17.46430549,148.3651446,0.218119141,34.33771925,0.350139453,294.8578161,29.06702835,3.344029773,96984.2814,0.007985496,14.36444714,6.820534092,6.442642724,0.88936914,1.602885558,2.467739021,0.90123786,4.613157323,5.213566614,2.220199522,6.074843884,6.257443995,0.100322193,4.144741082,0,0,1,0,9.933167369,0,0
UTTAR PRADESH,ETAH,1,78.55053424,27.77132459,25.12016678,13.41100025,39.62593079,683.2510986,41.12400055,7.28000021,33.84400177,29.45666695,28.47599983,32.58800125,15.77266693,136.0441589,0.353125,31.0675,0.5049,267.8353348,30.10885773,3.037103057,98522.60547,0.008374889,17.57012654,7.509039456,7.499795299,3.867628163,3.810315781,3.555348061,1.386294361,5.627621114,5.545177444,3.218875825,6.424869024,6.658011046,0.09531018,3.944490196,0,0,1,0,3.049916533,0,0
WEST BENGAL,NORTH 24 PARGANAS,0,88.80696118,22.41552794,26.2493105,8.946918488,41.72151184,384.1436158,34.4098444,13.07688165,21.33296347,28.97451974,20.56248474,29.66881275,20.56248474,96.19511413,0.34341875,28.58750001,0.5546375,240.7413712,28.45694484,3.097411309,100472.8551,0.016767402,29.04366303,9.02549033,8.895759331,3.236253625,4.742580791,3.849486799,1.935600506,6.146841139,5.907215233,3.849486799,6.885570803,7.430003105,0.436423328,5.944851213,1,0,1,0,1.80407616,0,1
PUNJAB,BATHINDA,0,75.04055557,30.18260471,24.34166718,14.13333321,40.21091843,749.0785522,40.85200119,5.703999996,35.14800262,30.43400002,15.47666645,32.47066498,14.31933308,121.2165604,0.37965,29.26916667,0.522975,284.3780327,29.6962677,2.846554697,98161.68946,0.00656127,13.06578875,8.951466416,8.807015985,4.720940419,2.744199542,3.526360525,1.098612289,4.955827058,4.727387819,3.091042453,5.676753802,5.963579344,0.100222338,3.891395038,1,0,0,0,5.243446661,0,0
UTTAR PRADESH,BAGHPAT,0,77.31286211,29.05527312,24.82115917,12.68006873,39.18078675,616.1917952,39.86771155,8.112713156,31.75833187,28.47506871,24.89446304,31.45128296,16.35957843,134.2949765,0.318228144,29.68845988,0.486426926,259.9258554,28.74662281,2.978873157,96815.76825,0.009330798,15.64180859,7.725751051,7.553650002,3.060306362,4.276003498,3.585759983,1.207994001,5.201917567,5.660246541,3.108777874,6.535104944,6.772840583,0.08366073,3.953472746,0,0,0,0,1.759007914,0,0
UTTAR PRADESH,SITAPUR,0,80.85739028,27.5177162,24.33616638,12.8516674,39.91201019,652.6738281,39.69599915,7.495999813,32.20000076,28.84466743,27.50933266,31.31866646,15.46266651,129.6808167,0.3399,29.53902288,0.55185,239.4315339,28.52318726,3.255057574,98025.27735,0.008550702,14.90666914,7.839605059,7.703161043,1.827818952,4.333270401,4.219507705,1.609437912,6.01615716,5.811140993,3.663561646,6.694562059,6.962243464,0.09531018,3.943279395,1,0,0,0,0.165928743,1,0
HIMACHAL PRADESH,LAHUL & SPITI,0,77.29462923,32.59125326,-3.787666559,10.39266682,31.07964134,866.4738159,12.43999958,-21.30800056,33.7480011,5.008666515,-6.91866684,6.368666649,-14.4046669,50.10492325,0.0013,10.1175,0.003825,90.71862222,-4.745870972,2.602438987,58866.82324,0.003146603,21.01157665,3.183914158,2.835085625,3.360827777,0.064784281,4.369447852,2.302585093,4.691347882,4.094344562,3.737669618,5.043425117,5.905361848,1.261297871,8.094836216,0,0,0,1,0.341794888,1,0
RAJASTHAN,CHITTAURGARH,0,74.66931265,24.59734634,25.48191643,13.14516688,41.81191445,535.8480225,40.69600105,9.257999897,31.43800068,27.11166668,25.21566677,32.03433419,18.27766705,150.4968949,0.285375,33.5475,0.455925,275.7874298,26.39275513,3.172881961,95480.66407,0.008389496,13.26125574,9.02549033,6.726705021,0.369405116,4.742580791,2.13833306,0.693147181,4.35539217,5.554474624,2.012675845,6.491088372,6.649169085,0.067658648,3.879327623,0,0,1,0,2.907843479,0,0
MADHYA PRADESH,SATNA,0,80.68970159,24.6994244,25.34866714,13.20133305,39.29918671,610.0044556,42.16400146,8.375999451,33.69600296,27.75600052,29.97200012,32.67399979,17.26133347,142.4497833,0.325375,30.5425,0.527175,267.2143021,27.97043763,2.885109723,96999.5918,0.0094563,13.97338105,6.500911478,6.413600681,0.192083079,0.902410576,3.663561646,1.386294361,4.644390899,5.80814249,3.044522438,6.698268054,6.910750788,0.065319466,3.942794664,0,0,1,0,7.200209069,0,0
CHHATTISGARH,UTTAR BASTAR KANKER,0,81.12918752,20.14772106,25.69506058,11.5488402,41.94839339,439.6502467,39.95065927,12.14080445,27.82005494,26.50313248,20.88352931,31.46108271,20.20229517,131.9678287,0.276434106,29.70543498,0.477928333,232.3218145,26.09196803,2.339430537,95955.28505,0.011816925,20.2244118,8.715465279,8.491388651,3.198609987,4.442227889,3.02392818,1.300640163,5.353329022,6.006868053,2.773755552,6.921258557,7.215059085,0.106290071,3.974805709,0,0,1,0,2.23896228,0.353333333,0
ASSAM,KAMRUP METROPOLITAN,1,91.77,26.15,24.20616722,9.651666641,46.76195145,401.9984436,31.92399979,11.28399944,20.63999939,27.54266739,18.38999939,28.1546669,18.38999939,88.56216431,0.030375,26.6175,0.0377,141.4284325,27.11258088,1.328722775,98634.17579,0.014761522,30.33901692,10.01631332,9.487437722,8.846037822,9.506101983,3.526360525,1.945910149,6.829793738,5.837730447,3.526360525,6.841615476,7.44716836,1.261297871,8.094836216,0,0,0,1,1.474792782,0,1
MAHARASHTRA,OSMANABAD,0,76.0339393,18.35685752,25.81170893,13.32708383,50.5054903,340.4011536,39.74500085,13.44900036,26.37400103,25.06233311,24.20216656,30.44816685,21.91566658,109.8348656,0.242975,33.1325,0.38930625,280.6627408,25.5625721,3.842049033,93477.15968,0.011471771,26.21706165,9.017345623,8.84928536,2.310037177,3.929147095,3.525723647,1.098612289,3.854292071,5.26128946,2.48490665,6.285447206,6.710780819,0.648986228,5.976016048,0,0,0,1,3.990445987,0,1
ODISHA,MAYURBHANJ,0,86.28709731,21.96293678,25.78163846,10.39116669,42.80830129,408.4977519,36.90866661,12.48133342,24.17933369,27.58688895,20.19155566,30.37488874,20.13711103,103.5419286,0.364770833,26.91194445,0.609295833,220.6494713,26.56149064,1.890500586,96692.21648,0.014116134,24.36924553,10.03549911,9.95445797,6.323184334,5.929794304,3.877046985,1.462745965,5.87545628,5.868419082,3.672307463,6.874577975,7.343226526,0.178183265,3.791591918,1,0,1,1,4.726357718,0,1
MAHARASHTRA,SANGLI,0,74.38671216,17.06517803,25.11400032,12.23633337,54.08174706,240.3799591,36.8900013,14.06799984,22.63000107,24.09066677,24.4586668,28.56233407,22.55799962,93.47816468,0.3075,31.775,0.5350375,267.5614014,25.41597138,3.068082631,94249.65723,0.013041487,28.27994919,10.5172028,10.41945774,0.152219479,5.706513603,3.624252036,0,4.505212473,5.051578874,1.844439727,5.847623511,6.471474794,0.079611753,3.762069762,1,0,0,0,1.280974902,1,0
TAMIL NADU,PUDUKKOTTAI,0,78.94152503,10.27413011,28.70224953,8.763833523,58.34266854,221.8870774,36.48200035,21.48999978,14.99200058,27.29833413,27.16799927,31.19333363,25.74133301,76.36518479,0.237075,35.175,0.3763,297.2325059,29.3155571,3.949970901,100208.502,0.016494187,20.53725815,10.06099642,9.911072784,3.024294473,5.862486591,5.738949572,2.791748154,4.870778343,5.3297226,4.161318548,6.236463408,6.875626799,0.060802214,3.806939265,0,0,1,0,5.577147752,0,0
RAJASTHAN,JHUNJHUNUN,0,75.35057541,28.31938644,25.24416733,15.37099934,43.79202271,693.5269775,40.82799911,5.604000092,35.22399902,30.24799919,16.7140007,32.7179985,15.73866653,137.1115265,0.12995,36.96,0.233575,327.0937195,30.59323273,3.605061889,97272.08203,0.0068688,13.86918974,8.790171629,8.647230635,0.059751297,3.932108636,3.044522438,1.609437912,5.220355825,4.976733742,2.772588722,5.826000107,6.070737728,0.022658024,4.103882267,0,0,1,0,22.20222409,0,0
HIMACHAL PRADESH,SIRMAUR,0,77.4581503,30.4418643,22.73633385,11.82199955,38.17488861,650.2728271,37.4640007,6.495999813,30.96800041,27.33066559,25.72599983,29.76933289,13.95600033,131.5112152,0.359575,29.3075,0.56265,213.8437271,27.45456086,2.322410345,96578.53516,0.007956121,18.10981751,8.966271238,6.893231646,0.276899859,4.445397202,4.912654886,2.302585093,6.445719819,6.265301213,4.304065093,7.126087273,7.411556288,0.103233255,3.917756537,0,0,1,0,0.244344171,1,0
TAMIL NADU,NAGAPPATTINAM,1,79.73894743,10.84909981,28.37400055,8.446666718,53.52767181,251.4326172,36.77600098,20.99600029,15.78000069,26.33200073,27.99200058,31.24933243,25.10533333,103.6935043,0.3212,35.24,0.521625,319.9762879,29.62453614,3.784623027,100631.418,0.016354803,18.73874951,9.02549033,10.26416947,3.392785172,4.742580791,5.733341277,2.772588722,4.941642423,5.880532986,4.143134726,6.719013154,7.142036575,0.09531018,3.779633817,0,0,1,0,1.297891663,0,0
MADHYA PRADESH,BHIND,0,78.75775159,26.41040375,25.88400014,13.89422226,39.18804423,690.4388631,43.0253334,7.603999932,35.45066706,29.44488843,30.13422203,33.56511052,16.56400045,145.1792806,0.276841667,31.06361111,0.418075,272.928004,29.98602702,2.865175864,98666.65235,0.008402436,15.16304541,5.370477446,4.977655334,1.209712747,0.882581683,3.34042353,0.963457253,4.182311743,5.689935474,2.585968736,6.576556587,6.761730729,0.051563935,3.964813414,1,0,0,0,2.227966933,0,1
UTTAR PRADESH,HARDOI,1,80.34757828,27.22140956,25.27083397,13.1346674,39.92456055,634.6723633,40.76399994,8.331999779,32.43199921,29.16266632,23.86400032,31.99333382,16.59133339,132.9930725,0.3246,31.2275,0.448325,271.8970643,29.69535981,3.041816771,98914.4961,0.009315955,17.54257965,7.053459178,6.913397578,3.38931935,3.957268744,3.784189634,1.098612289,5.924255797,5.765191103,3.295836866,6.634633358,6.899723107,0.060624622,4.017283516,0,0,1,0,1.068355421,0,0
KERALA,KOZHIKODE,1,75.84012919,11.35648737,27.21157646,7.54129839,62.57213287,136.9969665,33.74460907,21.6920002,12.05260887,25.91323853,27.75323181,29.2969265,25.90763817,116.1145218,0.412045,29.36413791,0.673765,201.0519211,25.78564047,1.651597804,99542.23113,0.016909771,33.15921405,10.47167379,10.38110327,5.708903199,7.969718545,7.609955197,1.520180492,5.859983552,6.861614014,3.301735443,7.718950634,8.100572901,0.296558498,4.65386429,0,0,0,1,0.475632798,1,1
ASSAM,LAKHIMPUR,1,94.02548403,27.16705561,24.00149918,10.0423336,44.78386307,437.2276917,32.29999924,9.875999451,22.42399979,28.48933411,18.8920002,28.48933411,17.86199951,86.95461273,0.381375,27.89,0.640725,140.2494583,27.1850296,2.063675523,99626.84961,0.014230756,28.2200985,9.724169749,9.588490824,8.733541928,8.745436091,4.615120517,2.890371758,7.41517511,6.366470448,4.418840608,7.41517511,8.045267717,0.12993117,3.843476463,0,0,1,0,1.779491033,0,0
UTTAR PRADESH,JAUNPUR,0,82.73207403,25.59179086,25.94616604,12.3623333,38.64292717,614.6053162,40.93799973,8.946000099,31.99199868,29.42833233,25.11499977,32.39366531,17.29899979,138.9635849,0.2846875,30.7925,0.428775,264.9968415,29.57680665,3.006757976,99501.75978,0.010411263,17.72351409,8.781272885,8.636958185,4.485935545,4.970798115,3.540854293,1.242453325,4.641423531,5.731657482,3.090008327,6.68893362,6.90022384,0.075397528,3.994638202,0,0,1,0,1.222034011,0,0
NAGALAND,ZUNHEBOTO,1,94.52528152,26.03163364,23.96697471,10.46956482,42.16021837,481.4089411,35.31836168,10.19263898,25.12572249,27.111616,17.97746313,29.29465782,17.39047222,116.7582565,0.305440278,28.24262829,0.506693056,244.2811957,25.18814049,2.360799711,92749.88333,0.011067928,24.13709719,8.668097293,7.669881045,4.060884791,4.79345639,3.744786641,1.831244695,6.211666328,5.961568876,3.598772382,6.887795616,7.267307596,0.391051984,4.766384335,0,0,1,1,2.771983412,0,0
TAMIL NADU,RAMANATHAPURAM,0,78.63624585,9.37253693,29.28899956,8.619666577,61.20671845,207.6278992,36.46999931,22.38799954,14.08199978,27.34266568,27.76866627,31.48133278,26.49233341,90.41468811,0.2818875,37.05625,0.4528375,343.2350923,29.74067078,4.754354358,100495.3751,0.015938111,19.65028239,9.02549033,8.974077351,1.928015821,4.742580791,5.777345507,2.884160498,4.675051157,5.280581492,4.101788868,6.173419216,6.688239938,0.065377051,3.79750876,1,0,0,0,2.216942065,0,0
CHHATTISGARH,BIJAPUR,0,76.288668,17.37455093,26.73716736,12.36600018,51.29418182,312.5483398,39.49599838,14.92800045,24.17199898,26.24333382,25.55599976,31.15733337,22.79599953,100.6537933,0.226225,34.1375,0.408175,285.4612274,26.54792938,4.004520893,95621.58985,0.012324022,24.70792675,8.207143834,7.92537655,3.441418546,2.680165893,3.295836866,0.693147181,4.691347882,5.505331536,2.48490665,6.390240667,6.924612396,0.048790164,3.908014984,0,0,1,0,2.735443389,0,0
MAHARASHTRA,MUMBAI SUBURBAN,0,72.88434133,19.18557967,27.17045784,9.268138886,54.08146413,197.083547,34.14966583,17.01633263,17.13333321,27.95627785,25.138834,29.51205572,24.40161069,147.5895793,0.3144,30.735,0.5442,319.8575745,27.95555268,3.998431802,100604.502,0.016551696,29.65901709,9.02549033,8.895759331,3.236253625,4.742580791,1.782369177,0.693147181,6.199702576,6.721238778,1.595830581,7.50157248,7.720804572,0.111839482,3.834331698,0,0,0,0,0.526845141,1,1
GOA,NORTH GOA,1,73.98065656,15.55253332,45.34419646,401.7928826,39.21241927,12.54669198,27.42380658,27.83056189,23.64903839,34.83855377,20.42416279,142.5598174,1.890934022,0.451764706,83.72037056,263.5116843,2834.86096,3.043173687,95385.26844,0.257349124,18.18275311,8.448720994,8.394955027,2.523258299,4.497457572,2.130080286,0.78548525,4.945288587,5.91547689,1.990196685,6.536168423,6.859019101,0.128502776,4.043343394,0.235294118,0,0,0,1,0,2.716826933,0,0
CHHATTISGARH,NARAYANPUR,0,81.08119231,19.60426478,25.69506058,11.5488402,41.94839339,439.6502467,39.95065927,12.14080445,27.82005494,26.50313248,20.88352931,31.46108271,20.20229517,131.9678287,0.276434106,29.70543498,0.477928333,232.3218145,26.09196803,2.339430537,95955.28505,0.011816925,20.2244118,8.715465279,8.491388651,3.198609987,4.442227889,3.02392818,1.300640163,5.353329022,6.006868053,2.773755552,6.921258557,7.215059085,0.106290071,3.974805709,0,0,1,0,2.23896228,0.353333333,0
UTTARAKHAND,UTTARKASHI,1,78.6971959,31.14749815,4.226916433,10.17116642,35.9775486,677.4423523,17.64399958,-10.65799999,28.30199909,11.38899994,1.058333636,11.91533327,-4.530333521,67.89510346,0.003025,9.088750001,0.003575,100.0451656,-2.976957703,3.300413192,58011.86622,0.00340565,19.35100389,8.464302811,8.01363411,4.441554448,4.742580791,5.428479228,3.107304049,6.121142014,5.360133647,4.74926116,6.281761644,6.972770916,1.261297871,8.09482096,0,0,0,1,0.264306011,1,0
RAJASTHAN,BHARATPUR,1,77.35419817,27.29155383,25.56850052,14.32166767,40.36091614,711.1968384,42.18400192,6.699999809,35.48400116,29.85000038,23.72000122,33.23666763,15.7213335,152.5128021,0.239875,34.3875,0.3884,276.2566147,30.78470002,2.883310199,98264.97852,0.007555191,16.19721127,7.460716765,7.077616661,1.52506019,2.126840904,3.135494216,1.098612289,5.476463552,5.529429088,2.890371758,6.336825731,6.498282149,0.057088967,3.970684918,0,1,0,0,4.223392708,0,0
KARNATAKA,BIJAPUR,0,76.288668,17.37455093,26.73716736,12.36600018,51.29418182,312.5483398,39.49599838,14.92800045,24.17199898,26.24333382,25.55599976,31.15733337,22.79599953,100.6537933,0.226225,34.1375,0.408175,285.4612274,26.54792938,4.004520893,95621.58985,0.012324022,24.70792675,8.207143834,7.92537655,3.441418546,2.680165893,3.295836866,0.693147181,4.691347882,5.505331536,2.48490665,6.390240667,6.924612396,0.048790164,3.908014984,0,0,1,0,2.735443389,0,0
DAMAN & DIU,DIU,1,70.93986822,20.72089152,26.77916718,11.09305573,50.95374298,276.9659729,35.97916794,14.20833302,21.77083588,28.1277771,26.69375038,30.06041718,22.86597252,154.5029449,0.2215875,30.4425,0.4338625,277.0917969,27.4245926,3.777457893,100593.1016,0.016374838,25.14429284,10.70220056,11.26096504,5.874407335,6.695550294,1.386294361,0,5.81711116,6.519147288,1.098612289,7.301822342,7.488852956,0.832274864,7.417167404,0,0,1,0,0.93163494,1,0
RAJASTHAN,JHALAWAR,0,75.61703453,23.88183186,25.89050102,14.49566746,45.0175972,497.0358887,41.90800095,9.708000183,32.20000076,26.87400055,26.06666756,32.31733322,19.5359993,149.2325745,0.2478,34.26175,0.4317875,273.060196,26.51062927,3.579444647,95633.14258,0.009081612,20.80596161,6.746506988,6.669400808,0.105726237,1.590975747,2.302585093,0.693147181,4.33073334,5.673323267,1.945910149,6.584791392,6.742880636,0.049385225,3.906507825,0,0,0,1,3.052085037,0,0
CHHATTISGARH,BASTAR,1,81.69288629,19.07535507,24.84541703,11.60583306,43.8900547,371.5088349,37.79400063,11.66200018,26.13199997,25.17733288,20.4883337,29.83100033,20.10733318,122.6738472,0.22795,31.01902288,0.38145,208.0957261,24.38064728,1.802743167,94238.02052,0.013285449,21.95829082,9.137304325,9.01943926,5.126882134,5.239486928,3.400641517,1.700598691,5.567462367,5.968154537,2.914472809,6.915563984,7.258393553,0.081430647,3.863460743,0,0,1,0,1.469557073,0,1
BIHAR,PASHCHIM CHAMPARAN,0,84.5664097,27.0979859,24.74966621,12.09333324,44.46732712,525.2641602,36.49599838,9.196000099,27.19599915,29.02666664,18.14466667,29.72333336,17.11466599,125.7885742,0.407375,29.59333334,0.601925,217.4491883,28.63736115,2.788520456,99255.6543,0.012081835,19.95372295,10.0672041,9.949450117,5.772711134,5.357793267,3.496507561,1.386294361,6.59441346,6.06610809,3.36729583,6.96979067,7.295735073,0.130662699,3.920487084,0,0,1,0,2.063527098,0,0
ARUNANCHAL PRADESH,TIRAP,0,95.44078233,26.94700659,17.52050018,8.94833374,42.65986633,432.8548279,25.7159996,4.739999771,20.97599983,22.18333435,12.71333313,22.18333435,11.63933372,89.12025452,0.41065,22.83833334,0.834,132.3257428,19.43978272,0.728292108,86813.92969,0.012958971,35.83805371,8.230589079,8.224959646,4.845811359,5.673557033,4.369447852,2.708050201,7.200424893,6.192362489,4.234106505,7.200424893,7.762596049,0.284238651,3.8450816,0,0,0,1,1.15935086,0,0
MAHARASHTRA,DHULE,0,74.22963203,21.05608444,25.85133362,14.28100014,51.44294739,343.4794159,39.18400002,11.55000019,27.63399983,25.90766621,24.21600056,30.40266705,21.61533261,127.4961128,0.2069,32.97576144,0.4035625,270.2355118,25.50387345,3.647946984,94533.69825,0.011208326,22.70850564,9.277077159,9.020447189,1.363685975,4.899463814,1.777674031,0,4.785264568,5.362843681,1.609437912,6.207266462,6.527717401,0.052926916,3.912772724,0,0,0,1,1.351086467,0,0
JHARKHAND,JAMTARA,0,87.16912402,23.88244885,26.22683334,11.77099991,43.16781235,461.3601379,38.48400116,11.2159996,27.26800156,28.63066673,20.15999985,31.19733429,19.79999924,111.3834763,0.32095,30.42,0.544625,256.7913666,28.77821503,2.786232054,98969.26954,0.013521522,20.50606155,9.953651463,9.774720532,7.873212881,6.571677301,3.555348061,1.386294361,5.659482216,5.752572639,3.433987204,6.745236349,7.168579897,0.068047981,3.859149516,0,0,1,0,0.459780612,1,0
NCT OF DELHI,NEW DELHI,0,77.21397064,28.61088331,25.5575682,11.33404938,40.89542078,518.4920389,38.71992662,10.83762962,27.88229709,28.18946969,19.0676544,31.52628468,18.60399999,123.3324514,0.231474537,30.03659907,0.399860185,269.2491348,27.82443517,2.482426445,96297.85085,0.011047355,25.49775215,8.8115079,7.560032464,4.475511422,4.979377825,3.578312897,1.743172096,5.760303276,5.773276661,3.475942451,6.699148177,7.036134547,0.444972958,5.135904507,0,0,1,0,3.622991023,0,0
MIZORAM,LAWANGTLAI,0,92.71319725,22.38360033,21.59250069,8.80700016,46.31362915,311.8254395,29.54800034,10.53199959,19.01600075,23.71133423,16.90733337,24.2033329,16.90733337,98.28201294,0.44645,22.97,0.67805,184.2483063,21.22501526,1.201330096,89328.9375,0.013624132,33.13123894,8.640347885,8.347610641,1.957127506,3.463095121,3.80666249,2.197224577,6.833031733,6.413458957,3.80666249,7.474772182,7.986504939,0.381001636,3.774292332,0,0,0,1,2.102551096,0,0
TAMIL NADU,DHARMAPURI,0,78.38534852,11.93490742,26.82600022,10.9119997,59.05382729,237.8999863,36.1420002,17.66400051,18.47799969,25.86466694,25.67666626,29.69333363,23.62666703,78.29146957,0.3811625,26.02625,0.7065875,224.5901337,25.45856248,1.810331762,94531.47364,0.015062321,26.31526089,10.44010019,10.29843152,3.04013321,7.252759013,5.173220553,2.197224577,5.164720664,5.310736838,3.417592293,6.121390294,6.799612965,0.262630466,3.874798651,0,0,1,0,1.166246208,1,0
TAMIL NADU,MADURAI,0,78.05449584,9.81525477,28.82658291,9.822833063,62.43323708,204.264946,36.84799958,21.1079998,15.73999977,28.05933285,27.61600018,31.10000038,26.03700066,74.05194855,0.2877625,35.42,0.5102875,277.1893979,29.5661789,2.908455402,99126.15137,0.015089642,29.80520774,10.42971937,10.18082856,5.330124596,6.138488763,5.471837961,2.90855558,5.083694548,5.290532069,4.225526694,6.096417709,6.772112004,0.06995909,3.801019305,0,0,1,0,0.811030078,1,0
GUJARAT,NARMADA,0,73.6476233,21.73523733,25.7966671,12.51399994,48.2942276,340.9830017,38.15599823,12.24400043,25.91199875,26.06466675,26.50266647,30.22599983,21.44933319,154.5593567,0.1925,32.245,0.3163,250.1624832,26.06888733,2.569273174,97642.03712,0.012323941,19.04818631,8.583654164,8.325635468,0.277125571,4.777194982,1.098612289,0,4.990432587,6.118097198,0.693147181,6.925595197,7.097548851,0.067658648,3.880790303,0,0,1,0,0.192173348,1,0
RAJASTHAN,DAUSA,0,76.37724004,27.03630593,25.19566727,13.98200035,41.23997116,657.2000732,41.01599884,7.111999989,33.90399933,29.01333237,17.18400002,32.36733246,16.15866661,151.9308624,0.140275,34.3775,0.260425,263.0148087,28.91713105,2.651137948,96248.63672,0.007413205,13.43530608,5.993979573,5.534986335,0.241771176,1.020015137,2.944438979,1.386294361,5.624017506,5.533389489,2.772588722,6.390240667,6.548219103,0.033192967,3.98859817,0,0,1,0,3.056924993,0,0
ANDHRA PRADESH,NALGONDA,1,78.21995138,16.70540785,27.88733292,11.77700043,49.7332573,323.4405975,39.86400032,16.44000054,23.52199936,27.46899891,26.79933358,32.04466629,23.96133423,107.7876663,0.2560625,34.16375,0.370075,305.0660859,27.72953187,3.440058172,96738.49512,0.013763856,24.50188351,10.33208338,10.17029057,3.411325767,5.131812035,2.995732274,0.693147181,4.783237585,5.159055299,2.249904835,6.137538092,6.618730962,0.051167581,3.792676248,1,0,0,0,3.064555087,0,0
BIHAR,SUPAUL,0,86.61285284,26.07397213,24.86375046,11.23416662,43.23134423,502.4373627,35.3599987,9.374000073,25.98599911,29.02166653,17.533,29.38666725,17.533,115.7401009,0.301875,28.69492811,0.4362625,253.4900056,29.53692399,3.47115481,99883.96094,0.012997646,21.74110461,10.71039842,10.71954628,6.32731703,5.226726972,3.134548142,0.693147181,6.364750757,5.73333604,3.134548142,6.711122862,7.115969673,0.066216078,3.981479884,0,0,1,0,0.662199147,1,1
ODISHA,SAMBALPUR,1,84.42895787,21.59081952,26.29333305,11.4119997,40.40340805,459.962677,40.52799988,12.36800003,28.16799927,27.79800034,20.42333221,32.09799957,20.42333221,128.5745392,0.382575,28.63,0.611125,219.8889237,26.98969422,1.926247776,97055.79493,0.013029475,17.95967627,9.02549033,8.563219188,4.286500114,4.742580791,3.17805383,1.386294361,5.713732806,6.109247583,3.17805383,7.029972912,7.357556201,0.126632651,3.973118105,1,0,0,0,0.802429484,1,0
RAJASTHAN,DUNGARPUR,0,73.66563507,23.80252706,26.15916634,13.13500023,44.31823349,460.5083008,40.43199921,10.66400051,29.66800117,27.27866745,26.27666664,31.88066673,19.99466705,154.0408783,0.24635,30.0725,0.38465,278.3189545,27.75134431,3.543561042,97594.83985,0.00965627,12.64502001,8.371240328,8.238199756,0.447338059,2.515886156,1.791759469,0.693147181,4.406719247,5.638354669,1.609437912,6.461468176,6.6147256,0.05235523,3.919991175,0,0,1,0,0.170024977,1,0
WEST BENGAL,PASHCHIM MEDINIPUR,0,87.49326431,22.40795042,26.59883309,9.846666972,42.52043597,403.878891,36.60866611,13.46533314,23.14333312,28.74344476,21.15955607,30.76455562,20.9086663,99.29584883,0.357433333,28.84805556,0.572333333,244.2981657,28.75132777,2.867655695,100276.2168,0.016016327,20.58832741,10.82907852,10.7163022,8.6243379,8.709107595,3.599586306,1.059351277,5.864392853,5.666442837,3.5630318,6.693747361,7.203662685,0.106181409,3.793689891,0,0,1,0,4.860091922,0,1
WEST BENGAL,PURULIYA,0,86.84972,23.53306,26.0814991,11.18299961,41.61581039,465.2229614,38.69599915,11.82400036,26.87199783,28.19599915,19.9746666,31.39333344,19.81066704,112.4376221,0.338,30.065,0.5171,258.1835709,28.89947663,2.532434464,98917.64649,0.013373477,22.13608075,10.44376087,10.31816879,8.553167234,7.99804803,3.465735903,1.098612289,5.549076085,5.703782475,3.258096538,6.687108608,7.098375639,0.099468191,3.898177599,0,0,1,0,3.047175592,0,1
KARNATAKA,RAMANAGARA,0,77.27390603,12.80781397,24.54691696,10.80999995,56.99822617,209.2476502,34.68400001,15.85599995,18.85799885,23.98566628,24.52200031,27.55800057,22.11166668,89.77606583,0.2807625,30.2275,0.4333625,270.1108552,24.5020958,3.633241833,92005.33497,0.014151236,25.11074901,11.28483241,11.17138953,2.133433413,5.085683004,4.110336085,0.693147181,4.954138035,5.126896125,2.071567363,5.999001209,6.600319185,0.059597501,3.755408309,0,0,1,1,2.289241441,0,1
RAJASTHAN,JAISALMER,1,71.17817324,27.023928,26.95105552,15.67466641,44.36964162,672.2760417,42.66799927,7.167999903,35.50533295,32.32222239,21.91111119,33.95533244,17.57044411,147.203893,0.1223,40.51,0.174166667,369.7530899,31.68894094,3.806981584,98536.00391,0.007152076,12.40606102,5.001207951,3.774370181,3.977890489,1.035463495,1.894526589,0.693147181,4.356489601,4.09711083,1.843143029,4.875553731,5.09173469,1.261297871,8.094836216,1,0,0,0,17.89787061,0,1
UTTAR PRADESH,AURAIYA,0,79.48275508,26.66068637,25.3033098,12.91974181,39.95379777,627.8920005,40.62701926,8.27575162,32.35460111,29.03313281,25.34852715,32.05303937,16.67896947,136.7360435,0.32451348,30.25156084,0.49592933,265.013105,29.30656721,3.041286611,98721.98829,0.009525962,15.95634267,7.888893874,7.711356324,3.151937987,4.369970704,3.66117406,1.225222457,5.3214283,5.771841087,3.174562638,6.664028347,6.90787001,0.085061258,4.031090407,0,0,0,0,1.793085098,0,0
ODISHA,DHENKANAL,0,85.5262018,20.82609552,26.88050079,10.15100002,42.83845139,384.2321167,37.86800003,14.17199993,23.69599915,28.27866745,21.77466583,31.30466652,21.71133232,100.644928,0.344275,29.19652288,0.552675,228.4243317,28.30438385,2.125510872,99618.5918,0.015792348,19.33188916,8.900521811,8.641213136,5.028435547,5.97326488,3.850147602,1.791759469,5.707110265,5.765191103,3.761200116,6.762729507,7.247080585,0.082731398,3.744294451,1,0,0,0,5.112738258,0,0
RAJASTHAN,HANUMANGARH,0,74.48190984,29.44063567,25.20233345,14.72033405,40.65491867,766.0383301,41.70000076,5.687999725,36.19599915,31.45666695,20.33133316,33.5340004,14.75333309,119.3970795,0.23585,33.515,0.336625,307.7722703,31.38932953,3.398483456,98375.26172,0.006629122,14.63812924,7.361571894,7.092174071,0.55898257,2.227025722,2.772588722,1.098612289,4.624972813,4.33073334,2.48490665,5.267858159,5.564520407,0.041621675,4.075275,1,0,0,0,1.262674146,0,0
UTTAR PRADESH,KAUSHAMBI,0,81.45359115,25.48874236,24.33616638,12.8516674,39.91201019,652.6738281,39.69599915,7.495999813,32.20000076,28.84466743,27.50933266,31.31866646,15.46266651,129.6808167,0.3399,29.53902288,0.55185,239.4315339,28.52318726,3.255057574,98025.27735,0.008550702,14.90666914,7.839605059,7.703161043,1.827818952,4.333270401,4.219507705,1.609437912,6.01615716,5.811140993,3.663561646,6.694562059,6.962243464,0.09531018,3.943279395,1,0,0,0,0.165928743,1,0
PUDUCHERRY,PUDUCHERRY,1,79.73299852,11.91209815,25.48732544,11.11555788,41.73542137,484.788609,38.21272986,11.28243581,26.92315119,28.00248478,20.51031902,31.05075882,19.04295315,113.9170421,0.306163216,29.42855279,0.491647707,235.6860167,27.33140372,2.47349397,97370.52601,0.012336521,19.61375199,9.288306811,9.083793806,4.724832385,4.731855601,3.76934008,1.791137832,5.602741863,5.685056263,3.46870529,6.628420569,7.022633769,0.159601752,4.120869959,0,0,0,0,2.370574839,2,0
BIHAR,JEHANABAD,0,84.9915855,25.2064255,25.87424946,12.13716698,39.45763016,580.0577698,40.10199929,9.342000008,30.75999832,29.15633297,25.25200081,32.04633332,17.75233269,125.9339981,0.31465,29.56402288,0.5227,289.2729302,30.16836701,2.850885988,99609.04493,0.011616948,17.80409909,9.113857721,9.098804127,5.055054178,5.493002332,3.401197382,1.098612289,5.00057929,5.535346317,3.134548142,6.55748808,6.851182688,0.093034866,3.988752538,1,0,1,0,0.293924393,1,1
MAHARASHTRA,PUNE,1,73.90902395,18.59168727,24.67823334,12.46659985,52.12127991,274.6834442,36.45520019,12.56160011,23.8935997,24.85893326,23.19213333,28.28826637,21.37319984,128.6767136,0.21483,31.57353333,0.38932,237.0978775,24.32225953,2.8504192,93228.40977,0.01278329,26.37153759,11.53606993,11.44028119,1.778730477,6.914142552,2.326844464,0.277258872,5.420126934,5.950339134,1.556644803,6.665153134,7.071649798,0.066115244,3.830981811,0,0,1,0,1.688778916,0,1
PUDUCHERRY,KARAIKAL,1,79.80206264,10.93437793,25.48732544,11.11555788,41.73542137,484.788609,38.21272986,11.28243581,26.92315119,28.00248478,20.51031902,31.05075882,19.04295315,113.9170421,0.306163216,29.42855279,0.491647707,235.6860167,27.33140372,2.47349397,97370.52601,0.012336521,19.61375199,9.288306811,9.083793806,4.724832385,4.731855601,3.76934008,1.791137832,5.602741863,5.685056263,3.46870529,6.628420569,7.022633769,0.159601752,4.120869959,0,0,0,0,2.370574839,0,0
TAMIL NADU,ARIYALUR,0,79.24416293,11.16050522,28.56100082,9.627332687,57.3601799,246.3918152,37.25600052,20.47200012,16.7840004,26.38066673,26.64666748,31.38933372,25.37533379,76.14535522,0.38785,34.85,0.62405,337.7905656,29.65879974,3.739827871,99966.04688,0.015479107,28.0378089,10.2597282,10.22376552,1.977532776,5.20119023,5.857933154,2.48490665,4.983606622,5.298317367,4.007333185,6.248042875,6.946013991,0.096445898,3.792112709,0,0,0,1,5.296346494,0,0
MADHYA PRADESH,RAJGARH,0,76.57003645,24.13544493,26.67449951,14.19366646,44.66226196,505.9086914,42.84000015,11.06000042,31.77999878,27.7033329,26.98799896,33.27733231,20.40066719,151.6355133,0.23135,35.625,0.359125,268.2509156,26.98876343,3.3132146,96226.95508,0.00891012,20.65700055,6.051474066,5.698020694,1.450091291,0.930850573,2.995732274,0.693147181,4.454347296,5.739792912,2.397895273,6.661854741,6.82437367,0.053540767,3.950041073,0,0,1,0,0.819460219,1,0
BIHAR,DARBHANGA,1,86.16721721,26.12991617,24.64166641,11.47066689,43.60144424,509.2775879,35.30799866,9,26.30799866,28.43333435,17.23533249,29.28199959,17.23533249,118.0154037,0.257275,29.55652288,0.427425,258.0087929,29.66529236,3.551967979,99859.52149,0.012833972,22.83009911,10.13611598,10.38261389,7.052017473,6.063936028,3.17805383,0.693147181,6.216606101,5.648974238,3.17805383,6.593044534,6.979145275,0.067658648,4.01186834,0,0,0,1,3.646793148,0,0
ANDHRA PRADESH,NIZAMABAD,0,78.18305146,18.8199523,27.23716736,11.78133297,43.91836929,397.7564087,41.95199966,14.26000023,26.81200027,26.76133347,23.15333366,32.78933334,22.57800102,126.6595459,0.2988,29.94,0.506375,271.7619248,26.79155884,2.938238085,96612.37696,0.012582107,26.61668015,9.775461069,9.578184195,3.903918593,4.79434012,3.218875825,1.609437912,5.159055299,5.686975356,2.708050201,6.633318433,6.942156706,0.076961041,3.869898079,1,0,0,0,2.399699381,0,0
JAMMU & KASHMIR,KISHTWAR,0,76.01461666,33.52957596,10.02219043,11.30968099,35.16457898,776.7154318,25.26459156,-6.577987518,31.84036119,9.003828215,7.823784797,18.96846695,0.059691871,56.71342483,0.239850451,18.90284617,0.4564053,145.0018709,11.68853051,2.10680642,76132.58715,0.005818452,24.95699067,9.22988182,9.108039697,4.99037757,5.066609379,5.188946451,3.037610201,5.288863345,4.924231763,4.517867375,5.831862947,6.644533371,0.241163284,4.274891367,0,0,0,1,1.016915382,0,0
MADHYA PRADESH,DINDORI,0,80.87468264,23.03617967,24.27149963,13.82899952,42.2130661,515.7971802,40.86399841,8.104000092,32.75999832,25.57333374,17.86666679,30.93466759,17.86666679,143.9637451,0.1545,29.7775,0.327,233.3828583,24.81118164,2.660640121,93087.90821,0.009865715,17.59453154,7.538784003,7.456666664,0.037793771,1.766970374,3.555348061,1.609437912,5.056245805,6.098074282,3.555348061,6.997595983,7.217443432,0.040821995,3.890288513,0,0,1,0,0.464794918,1,0
ODISHA,KALAHANDI,0,83.00701688,19.80991419,26.67658329,10.65016651,42.02972412,396.1091309,39.25800133,13.40999985,25.71400166,27.25100041,21.72000027,31.84566784,21.51500035,120.5273629,0.2696625,30.10152288,0.46845,223.5070802,25.33147965,2.033459947,95504.96094,0.013154415,22.70095826,9.390890377,9.239034983,0.570076964,4.771787505,3.417592293,1.700598691,5.662743419,5.914743248,3.314020688,6.861632389,7.233093756,0.100402957,3.849478583,0,0,1,0,2.917236934,0,0
BIHAR,BANKA,0,87.04301992,24.7366712,25.81583214,11.76833248,42.06581497,494.0696411,38.13999939,10.16399956,27.97599983,28.75,19.36333275,30.87866592,18.84666634,111.5684586,0.2538,32.63642857,0.4165,250.8359223,28.51855622,2.724918187,98445.24805,0.013161693,21.53496933,9.67321912,9.856261136,6.04577347,5.066207819,3.401197382,1.098612289,5.552959585,5.683579767,3.33220451,6.642486801,7.063903961,0.053145745,3.891820298,0,0,1,0,0.978681218,1,0
